City_ID,City,Lat,Lng,Max Temp,Humidity,Cloudiness,Wind Speed,Country,City Description
0,Saint-Philippe,-21.36,55.77,69.8,77,35,6.93,RE,scattered clouds
1,Leh,34.17,77.58,64.33,24,0,4.9,IN,clear sky
2,Gualeguay,-33.14,-59.31,65.86,53,0,11.36,AR,clear sky
3,Kondapalle,16.62,80.53,77.74,91,99,2.06,IN,light rain
4,Ushuaia,-54.8,-68.3,35.6,74,40,16.11,AR,shower rain
5,Punta Arenas,-53.15,-70.92,33.8,71,75,26.4,CL,light shower snow
6,Mataura,-46.19,168.86,43.0,94,11,3.0,NZ,few clouds
7,East London,-33.02,27.91,63.21,70,75,6.53,ZA,broken clouds
8,Port Alfred,-33.59,26.89,57.78,82,8,9.42,ZA,clear sky
9,Rikitea,-23.12,-134.97,70.11,83,36,22.19,PF,scattered clouds
10,Nguruka,-5.11,31.04,71.96,39,39,2.62,TZ,scattered clouds
11,Cidreira,-30.18,-50.21,61.21,79,0,16.28,BR,clear sky
12,Kenai,60.55,-151.26,62.6,67,90,13.87,US,overcast clouds
13,Cape Town,-33.93,18.42,60.01,87,40,10.29,ZA,scattered clouds
14,Jamestown,42.1,-79.24,82.0,69,75,5.82,US,broken clouds
15,Virginia Beach,36.85,-75.98,91.0,52,75,8.05,US,broken clouds
16,Thompson,55.74,-97.86,51.8,100,90,5.82,CA,light rain
17,Okha,53.57,142.95,48.65,92,6,1.72,RU,clear sky
18,Aksu,41.12,80.26,77.76,29,0,5.03,CN,clear sky
19,Henties Bay,-22.12,14.28,55.99,88,0,5.99,NA,clear sky
20,Avarua,-21.21,-159.78,75.2,73,0,11.41,CK,clear sky
21,Bandarbeyla,9.49,50.81,76.26,76,95,32.19,SO,overcast clouds
22,College,64.86,-147.8,63.0,72,75,0.94,US,broken clouds
23,Nikolskoye,59.7,30.79,63.0,82,40,4.47,RU,scattered clouds
24,Asau,46.43,26.4,63.0,91,0,2.75,RO,clear sky
25,Sao Filipe,14.9,-24.5,79.9,80,78,4.97,CV,broken clouds
26,Port Elizabeth,-33.92,25.57,60.8,77,75,5.82,ZA,broken clouds
27,Qaanaaq,77.48,-69.36,37.06,86,87,4.03,GL,overcast clouds
28,Kawalu,-7.38,108.21,72.05,88,81,1.74,ID,broken clouds
29,Kruisfontein,-34.0,24.73,55.99,85,100,1.01,ZA,overcast clouds
30,Kattivakkam,13.22,80.32,82.4,88,40,9.17,IN,scattered clouds
31,Kapaa,22.08,-159.32,84.99,74,40,12.75,US,scattered clouds
32,Mehamn,71.04,27.85,55.4,87,99,3.36,NO,overcast clouds
33,Yellowknife,62.46,-114.35,59.0,54,40,8.05,CA,scattered clouds
34,Gondanglegi,-7.75,112.01,73.29,83,8,7.54,ID,clear sky
35,Ponta Do Sol,32.67,-17.1,77.0,61,20,19.46,PT,few clouds
36,Busselton,-33.65,115.33,42.01,80,6,4.43,AU,clear sky
37,Dikson,73.51,80.55,46.02,79,0,10.76,RU,clear sky
38,Hilo,19.73,-155.09,82.4,69,90,5.82,US,overcast clouds
39,Labuhan,-6.88,112.21,77.13,81,15,6.78,ID,few clouds
40,Potosi,-19.58,-65.75,59.16,28,0,22.64,BO,clear sky
41,Vila Velha,-20.33,-40.29,73.0,60,85,18.34,BR,overcast clouds
42,Iqaluit,63.75,-68.51,48.2,76,40,4.7,CA,scattered clouds
43,Longfeng,46.55,125.12,65.57,90,100,5.5,CN,light rain
44,Provideniya,64.38,-173.3,50.0,81,90,2.24,RU,overcast clouds
45,Codrington,-38.27,141.97,42.87,79,94,7.56,AU,overcast clouds
46,Los Llanos De Aridane,28.66,-17.92,75.2,78,13,16.11,ES,few clouds
47,Saint-Pierre,-21.34,55.48,66.2,77,0,6.93,RE,clear sky
48,Wanning,18.8,110.4,80.08,86,100,8.25,CN,overcast clouds
49,Ambilobe,-13.2,49.05,67.26,77,64,4.36,MG,broken clouds
50,Puerto Ayora,-0.74,-90.35,77.0,57,59,21.92,EC,broken clouds
51,Ribeira Grande,38.52,-28.7,75.2,88,40,8.05,PT,scattered clouds
52,Tunceli,39.11,39.55,73.4,31,0,9.17,TR,clear sky
53,Albany,42.6,-73.97,84.0,65,75,9.17,US,thunderstorm
54,Atuona,-9.8,-139.03,78.42,78,2,16.15,PF,clear sky
55,Hovd,48.01,91.64,59.49,44,29,9.15,MN,scattered clouds
56,Charlottetown,46.24,-63.13,78.8,44,75,13.87,CA,broken clouds
57,Arman,59.7,150.17,42.06,66,0,9.69,RU,clear sky
58,Hinton,53.4,-117.59,69.64,34,41,1.74,CA,scattered clouds
59,Ustka,54.58,16.86,63.09,79,0,11.95,PL,clear sky
60,Clearlake,38.96,-122.63,93.0,47,54,4.88,US,broken clouds
61,Mar Del Plata,-38.0,-57.56,64.4,39,0,14.99,AR,clear sky
62,Olafsvik,64.89,-23.71,51.8,68,14,7.34,IS,few clouds
63,Hobart,-42.88,147.33,41.0,75,75,8.05,AU,broken clouds
64,Butaritari,3.07,172.79,82.8,69,99,10.87,KI,overcast clouds
65,Tessalit,20.2,1.01,93.24,33,93,13.87,ML,moderate rain
66,Airai,-8.93,125.41,57.24,36,65,4.07,TL,broken clouds
67,Kunyang,27.67,120.57,74.61,88,28,3.85,CN,scattered clouds
68,Beringovskiy,63.05,179.32,53.31,79,36,3.56,RU,scattered clouds
69,Manuk Mangkaw,4.8,119.85,83.64,73,2,8.03,PH,light rain
70,Tigil,57.8,158.67,42.96,89,67,6.51,RU,broken clouds
71,Paralimni,35.04,33.98,82.4,39,0,5.82,CY,clear sky
72,Tuktoyaktuk,69.45,-133.04,62.6,67,40,13.87,CA,scattered clouds
73,Kamenka,51.32,42.77,55.99,73,0,4.0,RU,clear sky
74,Maridi,4.92,29.47,67.46,95,96,3.29,SS,overcast clouds
75,Arraial Do Cabo,-22.97,-42.03,71.6,64,75,11.41,BR,broken clouds
76,Hithadhoo,-0.6,73.08,82.51,79,55,13.44,MV,light rain
77,Vaini,-21.2,-175.2,75.2,94,20,6.93,TO,few clouds
78,Villa Union,23.2,-106.23,87.8,74,75,3.36,MX,broken clouds
79,Saldanha,-33.01,17.94,57.2,87,72,8.05,ZA,broken clouds
80,Fort Nelson,58.81,-122.7,57.2,87,90,5.82,CA,light rain
81,Longyearbyen,78.22,15.64,46.4,61,3,8.05,SJ,clear sky
82,Victoria,22.29,114.16,84.0,79,62,10.0,HK,broken clouds
83,Lorengau,-2.02,147.27,79.03,79,100,7.49,PG,moderate rain
84,Bredasdorp,-34.53,20.04,55.4,93,100,2.24,ZA,overcast clouds
85,Ansonia,41.35,-73.08,88.0,62,75,10.29,US,broken clouds
86,Pelaya,8.69,-73.66,88.25,63,47,0.2,CO,light rain
87,Gwembe,-16.5,27.61,56.79,54,0,0.83,ZM,clear sky
88,Juba,4.85,31.58,71.6,91,61,4.47,SS,light rain
89,Tiksi,71.69,128.87,37.72,79,100,9.84,RU,overcast clouds
90,Georgetown,5.41,100.34,78.8,94,20,3.36,MY,few clouds
91,Esperance,-33.87,121.9,50.0,100,90,8.05,AU,overcast clouds
92,Khatanga,71.97,102.5,55.65,67,97,10.22,RU,overcast clouds
93,Chokurdakh,70.63,147.92,33.75,91,100,10.67,RU,overcast clouds
94,Upernavik,72.79,-56.15,44.53,84,94,7.31,GL,overcast clouds
95,Vrcin,44.66,20.59,73.4,69,39,6.93,RS,scattered clouds
96,Parana,-31.73,-60.52,73.0,29,0,8.99,AR,clear sky
97,Pangnirtung,66.15,-65.71,42.8,93,75,4.7,CA,fog
98,Kincardine,56.07,-3.72,55.99,87,90,4.7,GB,overcast clouds
99,Saskylakh,71.92,114.08,39.6,86,0,7.38,RU,clear sky
100,Waw,7.7,28.0,72.84,92,100,5.66,SS,overcast clouds
101,Dongsheng,39.82,109.98,56.62,94,3,6.8,CN,clear sky
102,Kununurra,-15.77,128.73,59.0,30,0,1.12,AU,clear sky
103,Gazojak,41.19,61.4,82.89,28,0,17.49,TM,clear sky
104,Port Macquarie,-31.43,152.92,43.0,71,0,9.33,AU,clear sky
105,Saint George,37.1,-113.58,102.0,21,1,5.82,US,clear sky
106,Tasiilaq,65.61,-37.64,42.8,87,0,6.93,GL,clear sky
107,Hermanus,-34.42,19.23,55.99,95,99,6.2,ZA,overcast clouds
108,North Bend,43.41,-124.22,82.0,72,1,8.05,US,clear sky
109,Vondrozo,-22.82,47.28,55.06,100,25,1.9,MG,scattered clouds
110,Lebu,-37.62,-73.65,50.97,91,100,19.42,CL,light rain
111,Sao Manuel,-22.73,-48.57,73.4,40,0,10.29,BR,clear sky
112,Castro,-24.79,-50.01,55.67,75,26,10.18,BR,scattered clouds
113,Lavrentiya,65.58,-171.0,46.99,93,100,4.63,RU,overcast clouds
114,Abrau-Dyurso,44.69,37.59,69.8,49,0,11.18,RU,clear sky
115,Laguna,38.42,-121.42,93.0,19,90,9.17,US,haze
116,Faanui,-16.48,-151.75,76.26,78,24,19.19,PF,few clouds
117,Aklavik,68.22,-135.01,62.6,67,75,11.41,CA,broken clouds
118,Cherskiy,68.75,161.3,38.17,93,100,12.68,RU,light rain
119,Pacific Grove,36.62,-121.92,80.01,60,40,3.36,US,smoke
120,Zaranj,30.97,61.88,86.0,25,0,4.7,AF,clear sky
121,Ust-Maya,60.42,134.53,37.65,80,19,0.29,RU,few clouds
122,Mbanza-Ngungu,-5.25,14.87,71.08,79,36,4.94,CD,scattered clouds
123,Meulaboh,4.14,96.13,77.34,83,100,3.69,ID,overcast clouds
124,Flinders,-34.58,150.86,48.99,62,0,8.01,AU,clear sky
125,Valparaiso,-33.04,-71.63,57.2,66,48,13.87,CL,scattered clouds
126,Nuuk,64.18,-51.72,41.0,93,90,4.7,GL,overcast clouds
127,Deputatskiy,69.3,139.9,31.21,98,100,3.11,RU,overcast clouds
128,Svetlogorsk,52.63,29.73,64.09,95,94,4.79,BY,moderate rain
129,Pitimbu,-7.47,-34.81,80.6,65,66,14.99,BR,broken clouds
130,Fairbanks,64.84,-147.72,63.0,72,20,1.86,US,haze
131,Narsaq,60.92,-46.05,55.4,62,0,11.41,GL,clear sky
132,Sukumo,32.93,132.73,75.52,86,0,1.25,JP,clear sky
133,Quelimane,-17.88,36.89,71.01,83,1,2.24,MZ,clear sky
134,Suntar,62.14,117.63,40.82,74,0,3.31,RU,clear sky
135,Mahebourg,-20.41,57.7,71.6,73,40,18.34,MU,scattered clouds
136,Gijon,43.54,-5.66,68.0,77,40,3.36,ES,scattered clouds
137,Denizli,37.84,29.07,77.0,27,0,4.7,TR,clear sky
138,Bambous Virieux,-20.34,57.76,71.6,73,40,18.34,MU,scattered clouds
139,Suez,29.97,32.53,79.14,50,0,8.55,EG,clear sky
140,Oktyabrskoye,43.06,44.74,55.4,93,89,4.47,RU,light rain
141,Itarema,-2.92,-39.92,79.93,70,0,19.51,BR,clear sky
142,Ruidoso,33.33,-105.67,87.01,17,1,12.75,US,clear sky
143,Riachao Das Neves,-11.75,-44.91,88.93,28,94,6.8,BR,overcast clouds
144,Dwarka,22.24,68.97,82.89,84,100,19.86,IN,overcast clouds
145,Souillac,-20.52,57.52,71.6,73,40,18.34,MU,scattered clouds
146,Carnarvon,-24.87,113.63,64.4,77,0,18.34,AU,clear sky
147,Barrow,71.29,-156.79,41.0,93,90,5.82,US,mist
148,Aasiaat,68.71,-52.87,42.4,67,0,4.21,GL,clear sky
149,Leek,53.16,6.38,63.0,77,90,5.82,NL,overcast clouds
150,Kindu,-2.95,25.95,70.79,92,100,3.65,CD,light rain
151,Cayenne,4.93,-52.33,86.0,74,7,11.41,GF,light rain
152,Bluff,-46.6,168.33,43.0,94,63,3.0,NZ,broken clouds
153,Antofagasta,-23.65,-70.4,59.0,67,75,11.41,CL,broken clouds
154,Te Anau,-45.42,167.72,38.62,87,99,1.41,NZ,overcast clouds
155,Tomatlan,19.93,-105.25,90.72,63,54,8.41,MX,broken clouds
156,Tongchuan,35.08,109.09,65.93,81,89,6.17,CN,overcast clouds
157,La Libertad,-2.23,-80.9,69.8,83,90,8.05,EC,overcast clouds
158,Gat,31.61,34.76,82.0,34,0,1.9,IL,clear sky
159,Kungurtug,50.6,97.52,45.32,67,99,1.7,RU,overcast clouds
160,Ampanihy,-24.7,44.75,66.36,79,0,4.65,MG,clear sky
161,Whitehorse,60.72,-135.05,57.2,82,75,8.05,CA,broken clouds
162,Clyde River,70.47,-68.59,43.54,83,100,5.53,CA,overcast clouds
163,Florida,28.75,-82.5,93.99,55,75,6.93,US,broken clouds
164,Kaitangata,-46.28,169.85,52.0,90,97,14.0,NZ,overcast clouds
165,San Patricio,19.22,-104.7,91.4,66,40,11.41,MX,scattered clouds
166,Kaabong,3.48,34.15,67.08,66,100,6.06,UG,overcast clouds
167,Colac,-38.33,143.58,39.99,98,83,4.07,AU,broken clouds
168,Curumani,9.2,-73.54,85.78,74,73,0.72,CO,moderate rain
169,Mangrol,21.12,70.12,81.39,85,100,21.14,IN,moderate rain
170,Eenhana,-17.47,16.33,75.2,25,3,3.36,NA,clear sky
171,Marsabit,2.33,37.99,66.92,70,100,24.09,KE,overcast clouds
172,Nantucket,41.28,-70.1,73.4,88,90,10.29,US,mist
173,Dunedin,-45.87,170.5,48.99,96,100,4.0,NZ,light rain
174,Ewa Beach,21.32,-158.01,84.2,62,40,6.93,US,scattered clouds
175,Quebec,46.81,-71.21,75.2,73,75,9.17,CA,broken clouds
176,Khasan,42.43,130.64,67.37,95,100,2.04,RU,overcast clouds
177,Mian Channun,30.44,72.35,89.53,48,0,8.28,PK,clear sky
178,Salalah,17.02,54.09,77.0,100,90,4.7,OM,overcast clouds
179,Khash,28.22,61.22,75.54,67,0,3.89,IR,clear sky
180,Chuy,-33.7,-53.46,59.32,71,0,10.67,UY,clear sky
181,Sitka,57.05,-135.33,60.8,77,90,4.7,US,overcast clouds
182,Talnakh,69.49,88.4,57.2,82,100,13.42,RU,overcast clouds
183,Doha,25.29,51.53,91.99,84,0,3.36,QA,clear sky
184,Bethel,41.37,-73.41,88.0,51,20,10.29,US,few clouds
185,Severo-Kurilsk,50.68,156.12,51.31,82,31,0.74,RU,scattered clouds
186,Pevek,69.7,170.31,37.31,95,100,3.74,RU,overcast clouds
187,Lagoa,39.05,-27.98,73.56,89,0,15.17,PT,clear sky
188,Bambanglipuro,-7.95,110.28,72.86,89,19,3.18,ID,few clouds
189,Tripoli,32.88,13.19,79.39,83,0,6.55,LY,clear sky
190,Grindavik,63.84,-22.43,53.6,71,43,6.93,IS,scattered clouds
191,Shimoda,34.67,138.95,70.0,93,100,1.01,JP,overcast clouds
192,Guerrero Negro,27.98,-114.06,85.3,44,40,17.78,MX,scattered clouds
193,Calbuco,-41.77,-73.13,50.0,87,75,16.11,CL,broken clouds
194,Christchurch,-43.53,172.63,53.01,100,100,3.36,NZ,light rain
195,Zharkent,44.16,80.0,71.37,28,70,2.53,KZ,broken clouds
196,Voinesti,47.07,27.42,78.8,34,20,11.41,RO,thunderstorm
197,Solnechnyy,50.72,136.63,55.62,90,100,1.54,RU,overcast clouds
198,Nanakuli,21.39,-158.15,84.2,62,40,6.93,US,scattered clouds
199,Nome,64.5,-165.41,53.6,81,90,5.82,US,overcast clouds
200,Krutinka,56.01,71.51,51.46,92,96,8.41,RU,overcast clouds
201,Mbandaka,0.05,18.26,69.94,89,77,1.01,CD,broken clouds
202,Aljezur,37.32,-8.8,68.0,77,0,13.96,PT,clear sky
203,Dauphin,51.15,-100.05,77.0,36,1,9.17,CA,clear sky
204,Okoneshnikovo,54.84,75.08,51.78,92,0,4.23,RU,clear sky
205,Leningradskiy,69.38,178.42,44.22,86,97,12.41,RU,overcast clouds
206,Yenagoa,4.92,6.26,75.13,87,100,5.1,NG,overcast clouds
207,Nanortalik,60.14,-45.24,46.96,78,0,5.01,GL,clear sky
208,Sinnamary,5.38,-52.95,83.43,75,18,9.66,GF,light rain
209,Sao Felix Do Xingu,-6.64,-51.99,97.81,21,33,4.21,BR,scattered clouds
210,Husavik,66.04,-17.34,51.8,71,81,4.7,IS,broken clouds
211,Zhanaozen,43.3,52.8,69.39,36,100,11.03,KZ,overcast clouds
212,Port-Cartier,50.03,-66.87,64.4,52,20,6.93,CA,few clouds
213,Castel Volturno,41.01,13.95,80.6,88,20,3.71,IT,few clouds
214,Veraval,20.9,70.37,81.45,85,100,20.15,IN,moderate rain
215,Wagar,16.15,36.2,92.37,45,97,15.1,SD,overcast clouds
216,New Norfolk,-42.78,147.06,37.99,87,15,3.38,AU,few clouds
217,Mitsamiouli,-11.38,43.28,75.94,70,42,1.81,KM,scattered clouds
218,Stornoway,58.21,-6.39,50.0,71,100,5.82,GB,overcast clouds
219,Porto Novo,6.5,2.6,77.0,88,20,12.75,BJ,few clouds
220,Kemijarvi,66.71,27.43,57.07,86,83,10.25,FI,broken clouds
221,Maungatapere,-35.75,174.2,55.99,3,82,8.01,NZ,broken clouds
222,Hongjiang,27.11,110.0,75.81,86,0,3.69,CN,clear sky
223,Neyshabur,36.21,58.8,75.0,38,0,2.93,IR,clear sky
224,Zatoka,46.07,30.47,69.8,73,0,5.3,UA,clear sky
225,Fortuna,40.6,-124.16,69.01,72,1,11.41,US,clear sky
226,General Jose Eduvigis Diaz,-27.17,-58.42,77.0,25,0,9.17,PY,clear sky
227,Lafiagi,8.87,5.42,76.06,83,100,2.91,NG,overcast clouds
228,Lucapa,-8.42,20.74,71.1,66,88,3.18,AO,overcast clouds
229,Luderitz,-26.65,15.16,59.74,68,0,9.15,NA,clear sky
230,Mastic Beach,40.77,-72.85,84.0,69,1,10.29,US,clear sky
231,Misratah,32.38,15.09,81.1,81,0,11.23,LY,clear sky
232,Chanthaburi,12.83,102.17,84.0,83,82,2.71,TH,broken clouds
233,Menongue,-14.66,17.69,61.3,33,80,2.77,AO,broken clouds
234,Nizhneudinsk,54.91,99.03,51.44,82,99,2.89,RU,overcast clouds
235,Diamantino,-14.41,-56.45,95.23,21,11,2.15,BR,few clouds
236,Hobyo,5.35,48.53,75.97,77,60,24.0,SO,broken clouds
237,Dolores,-36.31,-57.68,57.31,61,0,13.67,AR,clear sky
238,Karera,25.47,78.15,77.9,85,94,13.09,IN,overcast clouds
239,Nybro,56.74,15.91,62.01,93,0,6.93,SE,clear sky
240,Portland,45.52,-122.68,78.01,53,1,5.82,US,clear sky
241,Novoanninskiy,50.53,42.67,55.99,79,0,1.01,RU,clear sky
242,Alice Springs,-23.7,133.88,48.2,42,0,4.81,AU,clear sky
243,San Pedro Buenavista,16.08,-93.12,82.4,69,75,4.7,MX,broken clouds
244,Kahului,20.89,-156.47,87.8,43,20,20.8,US,few clouds
245,Balikpapan,-1.27,116.83,75.16,87,43,5.28,ID,scattered clouds
246,Atasu,48.68,71.64,65.97,44,100,4.54,KZ,overcast clouds
247,Aripuana,-9.17,-60.63,99.5,20,0,1.77,BR,clear sky
248,Korla,41.76,86.15,77.2,33,0,2.46,CN,clear sky
249,Kadaya,50.93,119.29,52.32,98,69,2.33,RU,broken clouds
250,Santo Estevao,-12.43,-39.25,74.17,73,68,9.64,BR,broken clouds
251,Bismil,37.85,40.67,78.8,52,0,5.82,TR,clear sky
252,Necochea,-38.55,-58.74,64.99,43,0,17.0,AR,clear sky
253,Omboue,-1.57,9.26,74.01,76,100,8.48,GA,overcast clouds
254,Kavieng,-2.57,150.8,78.26,86,100,8.23,PG,light rain
255,Karasburg,-28.02,18.75,62.06,28,0,5.55,NA,clear sky
256,Hambantota,6.12,81.12,79.36,83,0,11.16,LK,clear sky
257,Eraclea,45.58,12.68,73.4,83,75,16.11,IT,light intensity shower rain
258,Port Hardy,50.7,-127.42,55.4,87,75,8.05,CA,broken clouds
259,Samana,19.21,-69.34,87.8,84,75,13.87,DO,broken clouds
260,Ruwi,23.6,58.55,86.0,74,100,2.24,OM,overcast clouds
261,Jacareacanga,-6.22,-57.75,100.87,18,0,1.86,BR,clear sky
262,Chauk,20.88,94.82,77.43,85,100,16.24,MM,overcast clouds
263,Salinas,36.68,-121.66,80.01,57,1,10.29,US,haze
264,Liverpool,53.41,-2.98,60.8,77,75,8.05,GB,broken clouds
265,Bac Lieu,9.29,105.72,79.83,84,39,6.87,VN,scattered clouds
266,Halifax,44.65,-63.57,78.01,46,69,3.0,CA,broken clouds
267,Dingle,11.0,122.67,76.32,88,100,0.65,PH,overcast clouds
268,Joao Pinheiro,-17.74,-46.17,72.93,55,63,11.12,BR,broken clouds
269,Ano Mera,37.45,25.4,79.0,54,0,18.34,GR,clear sky
270,Port Hedland,-20.32,118.57,60.8,59,0,8.55,AU,clear sky
271,Sonoita,31.85,-112.83,102.99,28,22,1.99,MX,few clouds
272,Dawei,14.08,98.2,75.49,89,93,2.1,MM,light rain
273,Marrakesh,31.63,-8.01,95.0,23,40,12.75,MA,scattered clouds
274,Skibbereen,51.55,-9.27,57.2,87,75,9.17,IE,broken clouds
275,Morant Bay,17.88,-76.41,89.01,74,40,10.29,JM,scattered clouds
276,Cauquenes,-35.97,-72.32,53.73,67,100,13.96,CL,overcast clouds
277,Russell,32.35,-85.2,89.6,52,75,14.99,US,broken clouds
278,Klaksvik,62.23,-6.59,46.4,81,79,8.05,FO,broken clouds
279,Umm Kaddadah,13.6,26.69,83.59,55,99,7.38,SD,moderate rain
280,Pakala,13.47,79.12,77.02,82,95,3.49,IN,moderate rain
281,San Policarpo,12.18,125.51,78.91,83,0,5.86,PH,clear sky
282,Chumikan,54.72,135.31,50.02,70,12,1.74,RU,few clouds
283,Port Lincoln,-34.73,135.87,47.7,80,62,2.73,AU,broken clouds
284,Torbay,47.67,-52.73,66.2,63,40,5.82,CA,scattered clouds
285,Lidkoping,58.51,13.16,60.8,87,0,18.34,SE,clear sky
286,Mirador,-6.37,-44.36,95.58,24,40,7.4,BR,scattered clouds
287,Galesong,-5.32,119.37,68.0,77,18,4.7,ID,few clouds
288,Swan River,52.11,-101.27,74.46,47,70,11.23,CA,broken clouds
289,Tevaitoa,-16.78,-151.5,77.05,77,26,20.6,PF,light rain
290,Valpacos,41.61,-7.31,70.0,16,0,1.01,PT,clear sky
291,Norman Wells,65.28,-126.83,68.0,52,20,17.22,CA,few clouds
292,Angoram,-4.06,144.07,73.63,97,100,1.07,PG,moderate rain
293,Surt,31.21,16.59,79.75,79,0,9.1,LY,clear sky
294,Sibiti,-3.68,13.35,71.49,83,100,5.17,CG,overcast clouds
295,Tuatapere,-46.13,167.68,43.0,94,85,3.0,NZ,overcast clouds
296,Isla Mujeres,21.23,-86.73,84.99,94,90,10.04,MX,overcast clouds
297,Santa Fe,-31.63,-60.7,73.0,29,0,8.99,AR,clear sky
298,Bela,25.93,81.98,80.85,79,52,3.91,IN,light rain
299,Varhaug,58.61,5.65,52.0,85,15,4.0,NO,few clouds
300,Kautokeino,69.01,23.04,53.51,91,100,10.71,NO,light rain
301,Guantanamo,20.14,-75.21,78.8,94,90,9.17,CU,light rain
302,Sitio Novo Do Tocantins,-5.52,-47.46,84.2,74,75,5.82,BR,broken clouds
303,Saint-Augustin,51.23,-58.65,63.03,73,81,9.55,CA,light rain
304,Kaliganj,23.41,89.14,78.46,94,43,5.68,BD,scattered clouds
305,Kamaishi,39.27,141.88,72.43,80,100,2.37,JP,overcast clouds
306,Priladozhskiy,59.85,31.48,61.0,99,100,6.98,RU,overcast clouds
307,Cabo San Lucas,22.89,-109.91,93.2,55,20,9.17,MX,few clouds
308,Coihaique,-45.58,-72.07,37.4,86,90,3.36,CL,light rain
309,Jalu,29.03,21.55,81.45,48,0,18.77,LY,clear sky
310,Muzhi,65.37,64.67,51.85,80,84,6.2,RU,broken clouds
311,Rabak,13.18,32.74,81.52,68,100,10.94,SD,overcast clouds
312,Ambon,-3.7,128.18,75.99,16,100,10.29,ID,overcast clouds
313,Vallenar,-28.57,-70.76,66.47,38,1,10.78,CL,clear sky
314,Tura,25.52,90.22,74.3,97,54,5.03,IN,broken clouds
315,Sangar,63.92,127.47,38.89,86,100,1.05,RU,overcast clouds
316,Raudeberg,61.99,5.14,48.0,88,88,14.41,NO,light rain
317,Itaituba,-4.28,-55.98,97.61,26,80,2.95,BR,broken clouds
318,Baijiantan,45.63,85.18,78.04,27,64,3.62,CN,broken clouds
319,Yumen,40.28,97.2,65.43,27,1,5.84,CN,clear sky
320,Touros,-5.2,-35.46,80.6,61,20,14.99,BR,few clouds
321,Toucheng,24.86,121.82,82.4,83,75,5.82,TW,broken clouds
322,Zhigansk,66.77,123.37,39.22,91,8,15.43,RU,clear sky
323,Isangel,-19.55,169.27,76.17,85,14,4.68,VU,few clouds
324,Nouadhibou,20.93,-17.03,77.0,73,0,18.34,MR,clear sky
325,Bathsheba,13.22,-59.52,87.8,66,20,11.41,BB,shower rain
326,Brae,60.4,-1.35,51.8,66,92,11.41,GB,light rain
327,Santa Isabel,-23.32,-46.22,66.2,59,40,10.29,BR,scattered clouds
328,Mayumba,-3.43,10.66,74.44,83,100,7.61,GA,overcast clouds
329,Lazo,43.38,133.9,62.83,87,86,0.94,RU,overcast clouds
330,Ashqelon,31.67,34.57,82.0,34,0,3.11,IL,clear sky
331,Qandala,11.47,49.87,89.35,51,5,3.02,SO,clear sky
332,Eyl,7.98,49.82,76.26,73,19,25.48,SO,few clouds
333,Ahuimanu,21.44,-157.84,84.2,69,40,10.29,US,scattered clouds
334,Muskogee,35.58,-95.33,90.0,49,1,6.93,US,clear sky
335,Srednekolymsk,67.45,153.68,36.18,84,100,9.1,RU,overcast clouds
336,Hornepayne,49.21,-84.77,76.6,52,100,4.52,CA,overcast clouds
337,Alofi,-19.06,-169.92,77.0,78,97,10.29,NU,overcast clouds
338,Cabedelo,-6.98,-34.83,80.6,65,32,14.99,BR,scattered clouds
339,Baruun-Urt,46.68,113.28,54.82,85,0,2.48,MN,clear sky
340,Mandalgovi,45.76,106.27,56.19,61,0,9.62,MN,clear sky
341,Shakawe,-18.37,21.85,63.32,46,0,5.12,BW,clear sky
342,Matane,48.83,-67.52,68.0,45,67,6.62,CA,broken clouds
343,Karratha,-20.74,116.85,72.77,43,71,5.19,AU,broken clouds
344,Saint Anthony,45.02,-93.22,91.99,43,40,5.82,US,scattered clouds
345,Lompoc,34.64,-120.46,73.99,78,1,6.93,US,clear sky
346,Pisco,-13.7,-76.22,66.0,82,75,9.17,PE,broken clouds
347,Praia,14.92,-23.51,84.2,70,75,9.17,CV,broken clouds
348,Hofn,64.25,-15.21,52.12,73,100,3.33,IS,overcast clouds
349,Nortelandia,-14.45,-56.8,95.43,22,75,3.4,BR,broken clouds
350,Mount Gambier,-37.83,140.77,39.2,93,90,6.93,AU,overcast clouds
351,Bolobo,-2.17,16.23,73.94,87,95,1.43,CD,light rain
352,Lavumisa,-27.31,31.89,62.55,61,0,2.1,SZ,clear sky
353,San Joaquin,10.26,-67.79,81.81,67,1,4.32,VE,light rain
354,Westport,41.14,-73.36,88.0,69,1,9.17,US,clear sky
355,Qui Nhon,13.77,109.23,79.27,81,100,5.32,VN,overcast clouds
356,Rorvik,64.86,11.24,51.8,71,75,18.34,NO,shower rain
357,Svilengrad,41.77,26.2,69.01,66,0,5.84,BG,clear sky
358,Ormara,25.21,64.64,83.44,85,100,12.93,PK,overcast clouds
359,Kimbe,-5.55,150.14,74.16,92,100,4.16,PG,moderate rain
360,Katsuura,35.13,140.3,77.0,94,75,8.05,JP,shower rain
361,Celestun,20.87,-90.4,86.25,68,32,11.79,MX,scattered clouds
362,Tramore,52.16,-7.15,62.01,82,40,9.44,IE,scattered clouds
363,Vega De Alatorre,20.03,-96.63,86.2,66,24,12.46,MX,few clouds
364,Ancud,-41.87,-73.82,48.2,87,90,12.75,CL,overcast clouds
365,Orlik,52.52,99.83,41.31,71,28,0.49,RU,scattered clouds
366,Kodiak,57.79,-152.41,60.8,72,90,4.7,US,overcast clouds
367,Kangaatsiaq,68.31,-53.46,46.92,76,9,3.2,GL,clear sky
368,Burnie,-41.07,145.92,41.0,76,82,7.0,AU,broken clouds
369,Santander,43.46,-3.8,70.0,73,40,3.36,ES,scattered clouds
370,Oparino,59.85,48.28,58.14,96,96,4.7,RU,overcast clouds
371,Grand Gaube,-20.01,57.66,66.99,82,35,5.01,MU,light rain
372,Novikovo,51.15,37.89,62.29,63,74,1.9,RU,broken clouds
373,Pingliang,35.54,106.69,58.87,65,0,5.17,CN,clear sky
374,Birjand,32.87,59.22,82.4,28,20,11.41,IR,few clouds
375,Weiser,44.25,-116.97,91.0,34,1,4.76,US,clear sky
376,Aldan,58.6,125.39,37.33,80,0,1.3,RU,clear sky
377,Hamilton,39.18,-84.53,87.01,61,75,3.89,US,broken clouds
378,Friockheim,56.64,-2.66,60.8,72,20,5.82,GB,few clouds
379,Abong Mbang,3.98,13.18,68.58,96,100,3.51,CM,moderate rain
380,Isabela,6.71,121.97,78.8,85,2,5.32,PH,clear sky
381,Balkhash,46.84,74.98,70.99,46,55,8.14,KZ,broken clouds
382,Namibe,-15.2,12.15,66.88,86,86,1.45,AO,overcast clouds
383,Birao,10.28,22.79,71.51,93,96,4.59,CF,overcast clouds
384,Pokhara,28.23,83.98,71.67,79,100,1.41,NP,overcast clouds
385,Ust-Nera,64.57,143.2,37.44,73,100,5.66,RU,overcast clouds
386,Almenara,-16.18,-40.69,71.02,69,99,5.88,BR,overcast clouds
387,Waddan,29.16,16.14,80.94,37,0,15.48,LY,clear sky
388,Abnub,27.27,31.15,86.0,37,0,11.41,EG,clear sky
389,Turukhansk,65.82,87.98,52.23,89,59,9.08,RU,broken clouds
390,Port Said,31.26,32.28,82.4,74,0,11.41,EG,clear sky
391,Marawi,8.0,124.29,75.0,92,67,4.0,PH,broken clouds
392,Marsaxlokk,35.84,14.54,82.0,88,0,6.93,MT,clear sky
393,Tutoia,-2.76,-42.27,81.37,74,6,14.16,BR,clear sky
394,Puyang,29.46,119.89,76.62,80,0,0.67,CN,clear sky
395,Kazachinskoye,57.7,93.28,52.34,87,74,3.09,RU,broken clouds
396,Awbari,26.59,12.78,82.72,21,0,7.36,LY,clear sky
397,Sembe,1.65,14.58,71.47,93,100,2.73,CG,moderate rain
398,Banjar,-8.19,114.97,77.0,100,40,4.7,ID,scattered clouds
399,Provost,52.35,-110.27,71.53,44,97,2.77,CA,overcast clouds
400,High Rock,26.62,-78.28,89.6,75,40,16.11,BS,scattered clouds
401,Vanimo,-2.67,141.3,77.7,81,100,4.5,PG,moderate rain
402,Astaneh-Ye Ashrafiyeh,37.26,49.94,62.6,100,90,11.41,IR,moderate rain
403,Cascais,38.7,-9.42,73.0,73,20,26.4,PT,few clouds
404,Sisimiut,66.94,-53.67,47.12,76,5,4.85,GL,clear sky
405,Gizo,-8.1,156.84,79.83,84,100,23.2,SB,moderate rain
406,Gamba,-2.65,10.0,73.45,82,75,6.82,GA,broken clouds
407,Winnemucca,40.97,-117.74,89.6,7,1,9.42,US,haze
408,Sept-Iles,50.2,-66.38,64.4,52,20,6.93,CA,few clouds
409,Palmer,42.16,-72.33,91.99,43,75,5.82,US,broken clouds
410,General Pico,-35.66,-63.76,67.42,28,0,17.56,AR,clear sky
411,Harper,4.38,-7.72,76.51,80,91,9.44,LR,overcast clouds
412,Shalyhyne,51.57,34.12,61.05,59,0,6.35,UA,clear sky
413,Tyup,42.73,78.36,60.84,39,44,1.97,KG,scattered clouds
414,Ahipara,-35.17,173.17,55.62,80,89,17.25,NZ,light rain
415,Cajabamba,-7.62,-78.05,70.12,30,0,6.33,PE,clear sky
416,Puerto Escondido,15.85,-97.07,84.2,66,90,10.29,MX,overcast clouds
417,Sesheke,-17.48,24.3,66.2,39,41,1.12,ZM,scattered clouds
418,Kambove,-10.88,26.6,61.72,52,3,5.44,CD,clear sky
419,Bengkulu,-3.8,102.27,76.21,87,100,5.28,ID,overcast clouds
420,Siniscola,40.57,9.69,77.0,50,0,19.46,IT,clear sky
421,Komsomolskiy,40.43,71.72,77.0,36,0,6.93,UZ,clear sky
422,Margate,51.38,1.39,66.0,78,100,3.0,GB,light rain
423,Paamiut,61.99,-49.67,42.42,88,0,4.05,GL,clear sky
424,Kieta,-6.22,155.63,76.66,83,100,5.79,PG,light rain
425,Komatipoort,-25.43,31.95,60.01,64,0,3.09,ZA,clear sky
426,Ronda,36.74,-5.17,81.0,70,0,3.69,ES,clear sky
427,Agadez,19.75,10.25,83.7,53,34,22.32,NE,light rain
428,Darien,41.75,-87.97,90.0,55,40,12.75,US,scattered clouds
429,Acarau,-2.89,-40.12,80.37,68,0,21.09,BR,clear sky
430,Jaque,7.52,-78.17,81.52,77,100,5.1,PA,light rain
431,Catio,11.28,-15.25,79.66,80,100,2.35,GW,overcast clouds
432,Nieves,15.33,120.95,76.08,92,88,2.21,PH,overcast clouds
433,Yarmouth,41.71,-70.23,82.99,74,1,9.17,US,clear sky
434,Fukue,32.69,128.84,82.0,77,0,6.24,JP,clear sky
435,Ankang,32.68,109.02,71.08,89,100,3.27,CN,overcast clouds
436,Ilulissat,69.22,-51.1,44.6,58,0,3.36,GL,clear sky
437,Umm Lajj,25.02,37.27,83.53,59,0,3.49,SA,clear sky
438,Along,28.17,94.77,72.84,88,73,1.57,IN,light rain
439,Bontang,0.13,117.5,76.46,84,38,4.41,ID,scattered clouds
440,Batagay-Alyta,67.8,130.41,35.71,87,100,8.3,RU,overcast clouds
441,Akersberga,59.48,18.3,64.0,77,26,3.0,SE,scattered clouds
442,Inzhavino,52.32,42.49,58.68,60,0,1.19,RU,clear sky
443,Emerald,-23.53,148.17,46.4,42,0,6.93,AU,clear sky
444,Teguldet,57.31,88.17,50.95,96,73,2.28,RU,broken clouds
445,Salinopolis,-0.61,-47.36,82.36,77,88,11.52,BR,overcast clouds
446,Emet,39.34,29.26,63.52,71,0,3.83,TR,clear sky
447,Buala,-8.14,159.59,80.26,81,100,7.4,SB,light rain
448,Santarem,-2.44,-54.71,78.8,88,75,3.36,BR,broken clouds
449,Taltal,-25.4,-70.48,56.84,65,36,2.44,CL,scattered clouds
450,Dibombari,4.18,9.66,75.2,100,75,1.12,CM,light intensity drizzle
451,Roald,62.58,6.13,51.8,71,75,12.75,NO,light rain
452,Sioux Lookout,50.1,-91.92,75.2,73,75,6.93,CA,broken clouds
453,Khorixas,-20.37,14.97,60.73,32,0,5.06,NA,clear sky
454,Vao,-22.67,167.48,70.27,78,99,12.86,NC,overcast clouds
455,Zelenoborskiy,66.84,32.36,57.58,91,100,9.89,RU,light rain
456,Matara,5.95,80.54,78.04,87,2,4.85,LK,clear sky
457,La Ronge,55.1,-105.28,69.8,49,75,23.04,CA,broken clouds
458,Seoul,37.57,126.98,77.0,83,90,1.9,KR,overcast clouds
459,Workington,54.64,-3.54,59.0,91,87,4.0,GB,light rain
460,Mamontovo,52.71,81.62,59.07,63,97,6.89,RU,overcast clouds
461,Port Blair,11.67,92.75,81.3,82,96,9.26,IN,overcast clouds
462,Gunjur,13.2,-16.73,82.4,83,75,5.82,GM,broken clouds
463,Porto Santo,33.07,-16.34,73.4,78,40,13.87,PT,scattered clouds
464,Argenta,44.61,11.84,73.99,92,55,5.01,IT,light rain
465,Cockburn Town,21.46,-71.14,84.07,79,100,27.22,TC,overcast clouds
466,Nanzhou,29.36,112.4,78.78,85,0,6.87,CN,clear sky
467,Totness,5.88,-56.32,84.7,69,70,10.69,SR,broken clouds
468,Sistranda,63.73,8.83,50.0,76,40,16.11,NO,shower rain
469,Tongliao,43.61,122.27,68.5,88,100,14.03,CN,light rain
470,Maragogi,-9.01,-35.22,75.13,76,88,6.04,BR,overcast clouds
471,Gorazde,43.67,18.98,73.4,73,75,8.05,BA,broken clouds
472,Mao,39.89,4.27,75.2,69,0,5.82,ES,clear sky
473,Roxas,11.59,122.75,78.89,84,100,4.0,PH,light rain
474,Solenzo,12.18,-4.08,76.69,84,26,5.32,BF,scattered clouds
475,Kosa,59.94,55.0,51.06,94,0,2.19,RU,clear sky
476,High Level,58.52,-117.14,59.0,87,90,4.7,CA,overcast clouds
477,Barguzin,53.62,109.62,55.83,85,88,4.63,RU,overcast clouds
478,Caravelas,-17.71,-39.25,67.87,89,100,14.85,BR,light rain
479,Honningsvag,70.98,25.97,55.4,82,75,13.87,NO,broken clouds
480,Yerbogachen,61.28,108.01,46.04,68,0,6.53,RU,clear sky
481,Espera Feliz,-20.65,-41.91,57.67,84,93,3.62,BR,overcast clouds
482,Shelton,41.32,-73.09,88.0,69,1,9.17,US,clear sky
483,Yulara,-25.24,130.99,55.4,40,0,4.7,AU,clear sky
484,Saint-Joseph,-21.37,55.62,66.2,77,17,6.93,RE,few clouds
485,Marsh Harbour,26.54,-77.06,85.71,74,0,24.16,BS,light rain
486,Rocky Mountain House,52.37,-114.92,67.14,57,1,4.14,CA,clear sky
487,Luanda,-8.84,13.23,69.8,94,40,2.24,AO,scattered clouds
488,Laiyang,36.98,120.71,78.01,94,99,6.22,CN,overcast clouds
489,Daru,-9.08,143.21,75.18,79,100,12.64,PG,overcast clouds
490,Bacolod,10.67,122.95,78.15,82,74,3.69,PH,broken clouds
491,Kutum,14.2,24.67,69.69,89,96,12.59,SD,heavy intensity rain
492,Hilton Head Island,32.22,-80.75,84.0,78,90,5.82,US,overcast clouds
493,Tazovskiy,67.47,78.7,52.92,93,100,10.58,RU,light rain
494,Kamyshlov,56.84,62.71,50.27,93,2,4.92,RU,clear sky
495,Yatou,37.15,122.38,74.43,94,29,10.09,CN,scattered clouds
496,Vaitape,-16.52,-151.75,77.07,77,26,19.24,PF,scattered clouds
497,Verkh-Usugli,52.7,115.17,50.72,96,100,3.51,RU,overcast clouds
498,Flin Flon,54.77,-101.86,71.6,40,75,24.16,CA,broken clouds
499,Katastarion,37.83,20.77,82.4,51,0,4.7,GR,clear sky
500,Tarko-Sale,64.92,77.78,46.99,93,26,4.97,RU,scattered clouds
501,Kalur Kot,32.16,71.26,95.11,41,0,10.38,PK,clear sky
502,Shingu,33.73,135.98,74.26,89,2,3.38,JP,clear sky
503,Mount Isa,-20.73,139.5,42.8,45,0,3.36,AU,clear sky
504,Yuzhno-Kurilsk,44.03,145.86,61.95,95,25,4.27,RU,scattered clouds
505,Lata,40.16,-8.33,72.0,89,0,1.99,PT,clear sky
506,Kedougou,12.56,-12.17,77.85,87,100,1.7,SN,moderate rain
507,Boa Vista,2.82,-60.67,84.2,62,40,11.41,BR,scattered clouds
508,Srivardhan,18.03,73.02,79.68,86,100,13.2,IN,moderate rain
509,San Quintin,30.48,-115.95,80.26,57,0,10.49,MX,clear sky
510,Dombarovskiy,50.76,59.54,60.82,66,80,9.8,RU,broken clouds
511,Hirara,24.8,125.28,85.08,76,100,29.33,JP,overcast clouds
512,Skjervoy,70.03,20.97,53.6,100,75,8.05,NO,light intensity drizzle rain
513,Bilma,18.69,12.92,92.41,36,15,12.33,NE,moderate rain
514,Riyadh,24.69,46.72,98.6,13,81,6.93,SA,broken clouds
515,Gavle,60.67,17.14,57.0,83,39,1.99,SE,scattered clouds
516,Ballina,-28.87,153.57,50.0,60,0,9.17,AU,clear sky
517,Talaya,61.38,152.75,35.26,85,98,5.61,RU,overcast clouds
518,Balabac,7.99,117.06,82.45,75,100,7.05,PH,overcast clouds
519,Alta Floresta,-9.88,-56.09,96.8,25,0,3.36,BR,clear sky
520,Tamandare,-8.76,-35.1,75.83,73,100,6.35,BR,overcast clouds
521,Tolaga Bay,-38.37,178.3,56.39,67,0,5.61,NZ,clear sky
522,Ntcheu,-14.82,34.64,62.04,71,98,3.24,MW,overcast clouds
523,Havre-Saint-Pierre,50.23,-63.6,60.8,63,75,13.87,CA,broken clouds
524,Hualmay,-11.1,-77.61,66.38,66,6,8.99,PE,clear sky
525,Aguimes,27.91,-15.45,81.0,42,20,29.97,ES,few clouds
526,Tezu,27.92,96.17,75.97,82,98,3.06,IN,overcast clouds
527,Tongling,30.95,117.78,79.3,83,0,2.89,CN,clear sky
528,Zaragoza,41.66,-0.88,75.99,47,53,17.22,ES,broken clouds
529,Kudahuvadhoo,2.67,72.89,83.3,70,100,4.9,MV,light rain
530,Dakar,14.69,-17.44,84.2,79,98,13.87,SN,overcast clouds
531,Tshikapa,-6.42,20.8,78.15,70,100,2.48,CD,overcast clouds
532,Tianpeng,30.99,103.94,75.0,99,100,5.68,CN,light rain
533,Fontem,5.47,9.88,66.09,97,100,0.83,CM,moderate rain
534,Krasnoselkup,65.7,82.47,49.44,92,100,2.24,RU,overcast clouds
535,Rawson,-43.3,-65.1,65.08,28,93,9.22,AR,overcast clouds
536,Vostok,46.49,135.88,52.5,86,98,3.09,RU,overcast clouds
537,Hasaki,35.73,140.83,75.2,100,75,4.7,JP,mist
538,Nizwa,22.93,57.53,86.85,52,100,7.67,OM,overcast clouds
539,Berlevag,70.86,29.09,59.0,87,96,3.36,NO,overcast clouds
540,Terrace,54.52,-128.6,59.0,77,90,3.36,CA,overcast clouds
541,Constitucion,-35.33,-72.42,53.51,74,100,18.59,CL,overcast clouds
542,Nhlangano,-27.12,31.2,55.31,39,0,2.75,SZ,clear sky
543,San Jose,37.34,-121.89,93.0,39,75,5.82,US,light rain
544,Gloversville,43.05,-74.34,88.0,45,1,5.82,US,clear sky
545,Kletskaya,49.31,43.06,62.76,52,0,4.81,RU,clear sky
546,Suhbaatar,50.23,106.21,55.74,88,94,2.57,MN,overcast clouds
547,San Cristobal,7.77,-72.22,89.6,46,40,18.34,VE,scattered clouds
548,Ossora,59.24,163.07,48.52,66,54,3.74,RU,broken clouds
549,Chicama,-7.84,-79.15,72.88,50,1,10.16,PE,clear sky
550,Linguere,15.4,-15.12,88.03,57,99,7.54,SN,overcast clouds
551,Manono,-7.3,27.42,76.55,41,87,2.93,CD,overcast clouds
552,Praia Da Vitoria,38.73,-27.07,78.8,78,20,4.09,PT,few clouds
553,Waipawa,-41.41,175.52,55.4,82,100,12.75,NZ,overcast clouds
554,Rio Gallegos,-51.62,-69.22,44.6,30,20,21.92,AR,few clouds
555,Kluang,2.03,103.33,73.99,100,20,1.12,MY,mist
556,Foz,43.57,-7.25,64.0,1,0,3.36,ES,clear sky
557,Merrill,45.18,-89.68,82.99,65,40,7.65,US,scattered clouds
558,Moindou,-21.69,165.68,68.0,94,90,3.36,NC,overcast clouds
559,Puerto Santander,8.36,-72.41,89.6,46,40,18.34,CO,scattered clouds
560,Ardakan,32.31,54.02,87.8,10,0,4.7,IR,clear sky
561,Aykhal,66.0,111.5,44.6,70,30,8.95,RU,scattered clouds
562,Benemerito De Las Americas,16.52,-90.64,89.82,61,55,2.91,MX,light rain
563,Alihe,50.57,123.72,58.46,93,100,1.79,CN,overcast clouds
564,Ajdabiya,30.76,20.23,76.98,74,0,12.71,LY,clear sky
565,Udachnyy,66.42,112.4,44.6,70,0,8.95,RU,clear sky
566,Querfurt,51.38,11.6,66.99,60,0,1.99,DE,clear sky
567,Lososina,49.0,140.31,60.1,95,92,6.42,RU,overcast clouds
568,Mariakani,-3.86,39.47,75.2,83,20,5.82,KE,few clouds
569,Plettenberg Bay,-34.05,23.37,57.65,75,100,6.33,ZA,overcast clouds
570,Vangaindrano,-23.35,47.6,65.23,90,4,5.17,MG,clear sky
571,Hokitika,-42.72,170.97,51.44,86,100,6.67,NZ,moderate rain
572,Budogoshch,59.28,32.47,61.74,96,100,6.85,RU,overcast clouds
573,Thabazimbi,-24.59,27.41,52.0,56,0,2.21,ZA,clear sky
574,Santa Catarina De Tepehuanes,25.35,-105.73,81.14,29,6,15.79,MX,clear sky
575,Griffith,41.53,-87.42,89.01,48,1,11.41,US,clear sky
576,Vung Tau,10.35,107.08,81.19,82,11,11.41,VN,moderate rain
577,Kostomuksha,64.57,30.58,54.86,88,0,8.37,RU,clear sky
578,Ushtobe,45.25,77.98,71.19,25,93,6.04,KZ,overcast clouds
579,Murgab,37.5,61.97,86.0,40,3,13.87,TM,clear sky
580,Sabha,27.04,14.43,83.01,22,0,9.78,LY,clear sky
581,Aksarka,66.56,67.8,47.8,95,35,9.98,RU,scattered clouds
582,Cuicatlan,17.8,-96.97,89.06,38,46,4.76,MX,scattered clouds
583,Aleksandrovskiy Zavod,50.92,117.94,51.13,93,54,0.83,RU,broken clouds
584,Sao Joao Da Barra,-21.64,-41.05,71.6,60,40,16.11,BR,scattered clouds
585,Hervey Bay,-25.3,152.85,50.0,39,0,8.05,AU,clear sky
586,Kangavar,34.5,47.97,64.4,27,0,2.24,IR,clear sky
587,Sechura,-5.56,-80.82,75.16,47,8,15.23,PE,clear sky
588,Coquimbo,-29.95,-71.34,57.2,58,90,12.75,CL,overcast clouds
589,Kipini,-2.53,40.53,76.3,80,46,17.43,KE,scattered clouds
590,Bardiyah,31.76,25.09,75.69,83,0,10.04,LY,clear sky
591,Noumea,-22.28,166.46,73.0,94,90,3.36,NC,overcast clouds
592,Saryozek,44.36,77.98,68.92,30,55,2.15,KZ,broken clouds
593,Vila Franca Do Campo,37.72,-25.43,75.2,78,20,12.75,PT,few clouds
594,Booue,-0.09,11.94,77.63,71,100,3.74,GA,overcast clouds
595,Sungai Besar,3.67,100.99,75.2,94,20,3.36,MY,few clouds
596,Geraldton,-28.77,114.6,48.2,93,75,6.93,AU,broken clouds
597,Hoi An,15.88,108.33,78.8,94,40,3.36,VN,scattered clouds
598,San Isidro,-12.12,-77.05,66.2,68,75,9.17,PE,broken clouds
599,Micheweni,-4.97,39.83,76.66,76,0,14.58,TZ,clear sky
600,Anadyr,64.75,177.48,51.8,93,40,2.24,RU,light rain
601,Saint-Michel-Des-Saints,46.68,-73.92,75.99,7,100,0.76,CA,overcast clouds
602,Yanaul,56.27,54.93,55.36,86,0,3.49,RU,clear sky
603,Shu,43.6,73.76,73.72,28,14,5.84,KZ,few clouds
604,Mokhsogollokh,61.47,128.92,40.5,80,35,3.89,RU,scattered clouds
605,Lerwick,60.15,-1.15,51.8,66,100,11.41,GB,overcast clouds
606,Haverfordwest,51.8,-4.97,66.0,77,98,17.22,GB,overcast clouds
607,Nurota,40.56,65.69,80.6,28,72,2.24,UZ,broken clouds
608,Kaseda,31.42,130.32,79.57,80,31,4.12,JP,scattered clouds
609,Lazareni,46.87,22.07,68.0,94,57,6.93,RO,light rain
610,Luba,3.46,8.55,76.01,84,100,5.86,GQ,light rain
611,Bam,29.11,58.36,92.53,23,70,7.58,IR,broken clouds
612,Beloha,-25.17,45.05,65.98,85,0,4.83,MG,clear sky
613,Mnogovershinnyy,53.94,139.92,42.76,67,5,1.66,RU,clear sky
614,Lahat,-3.8,103.53,71.69,90,100,2.35,ID,overcast clouds
615,Dukat,62.55,155.55,32.0,98,100,3.33,RU,overcast clouds
616,Nioaque,-21.14,-55.83,76.35,51,0,5.82,BR,clear sky
617,Sola,-13.88,167.55,80.76,83,86,9.78,VU,light rain
618,Manokwari,-0.87,134.08,78.96,72,55,4.07,ID,light rain
619,Pilar,-9.6,-35.96,80.6,65,20,10.29,BR,few clouds
620,Peterhead,57.51,-1.8,53.01,81,75,3.36,GB,light rain
621,Pergamino,-33.89,-60.57,72.0,31,0,4.0,AR,clear sky
622,Elk Plain,47.05,-122.4,73.0,53,1,6.33,US,clear sky
623,Wegorzewo,54.22,21.74,60.33,85,2,5.19,PL,clear sky
624,Avera,33.19,-82.53,82.0,71,90,3.36,US,overcast clouds
625,Anjozorobe,-18.4,47.87,51.8,93,20,4.7,MG,few clouds
626,Bingol,38.88,40.49,59.52,47,0,8.16,TR,clear sky
627,Vilhena,-12.74,-60.15,87.8,35,18,5.82,BR,few clouds
628,Akhmim,26.56,31.75,89.6,29,0,3.36,EG,clear sky
629,Akyab,20.15,92.9,80.49,88,100,15.82,MM,moderate rain
630,Ketchikan,55.34,-131.65,57.2,100,90,9.17,US,light rain
631,Ponta Delgada,37.73,-25.67,75.2,78,20,12.75,PT,few clouds
632,Chalatenango,14.03,-88.93,73.0,94,40,2.24,SV,light rain
633,Santa Cruz De La Palma,28.68,-17.76,75.2,78,36,16.11,ES,scattered clouds
634,Iquitos,-3.75,-73.25,71.6,78,90,4.7,PE,overcast clouds
635,Nha Trang,12.25,109.18,82.4,88,20,4.7,VN,few clouds
636,Kloulklubed,7.04,134.26,80.6,78,75,7.27,PW,broken clouds
637,Maryborough,-25.53,152.7,43.79,61,0,3.91,AU,clear sky
638,Burns Lake,54.23,-125.75,63.27,43,100,3.44,CA,overcast clouds
639,Shitanjing,39.23,106.34,65.57,50,0,8.03,CN,clear sky
640,Verkhnevilyuysk,63.45,120.32,38.28,86,0,2.62,RU,clear sky
641,Siocon,7.71,122.14,77.54,78,78,3.44,PH,broken clouds
642,Qaqortoq,60.72,-46.03,57.2,58,0,9.17,GL,clear sky
643,Les Cayes,18.2,-73.75,78.03,87,100,18.84,HT,moderate rain
644,Mafeteng,-29.82,27.24,44.37,51,0,3.2,LS,clear sky
645,Cap Malheureux,-19.98,57.61,66.99,82,36,5.01,MU,light rain
646,Atar,20.52,-13.05,103.6,20,26,10.54,MR,scattered clouds
647,Almaznyy,48.04,40.05,62.6,39,0,4.47,RU,clear sky
648,Khandyga,62.67,135.6,39.36,70,96,1.43,RU,overcast clouds
649,Nowogard,53.67,15.12,66.0,67,0,3.36,PL,clear sky
650,Bonavista,48.65,-53.11,62.01,83,37,1.99,CA,scattered clouds
651,Pitanga,-24.76,-51.76,60.82,70,1,4.94,BR,clear sky
652,Haines Junction,60.75,-137.51,59.14,61,98,3.4,CA,overcast clouds
653,Chapais,49.78,-74.85,68.0,49,75,6.93,CA,broken clouds
654,Chhuikhadan,21.53,80.98,77.0,86,0,4.7,IN,clear sky
655,Ritchie,-29.04,24.6,55.4,47,0,8.05,ZA,clear sky
656,Zhumadian,32.98,114.03,76.89,92,29,4.36,CN,scattered clouds
657,Vardo,70.37,31.11,55.4,93,95,14.99,NO,light rain
658,Chegdomyn,51.12,133.02,55.85,92,100,1.81,RU,light rain
659,Buraydah,26.33,43.98,96.8,20,0,5.82,SA,clear sky
660,Teluk Nibung,3.0,99.82,76.41,87,87,2.51,ID,overcast clouds
661,Mushie,-3.02,16.9,76.33,76,100,3.74,CD,light rain
662,Pontianak,-0.03,109.33,75.4,93,80,2.15,ID,broken clouds
663,Poum,-20.23,164.02,71.92,81,23,19.3,NC,few clouds
664,Krizevci,46.02,16.54,73.4,69,81,2.24,HR,broken clouds
665,Broome,42.25,-75.83,84.0,64,1,11.41,US,thunderstorm
666,Conde,-7.26,-34.91,80.6,65,45,14.99,BR,scattered clouds
667,Challapata,-18.9,-66.77,57.02,32,0,10.02,BO,clear sky
668,Mutis,6.23,-77.4,80.53,78,100,7.67,CO,light rain
669,Jiazi,22.88,116.07,80.64,82,73,5.06,CN,broken clouds
670,Zambezi,-13.54,23.1,66.0,32,0,4.72,ZM,clear sky
671,Moussoro,13.64,16.49,81.28,67,37,5.59,TD,scattered clouds
672,Nisia Floresta,-6.09,-35.21,80.6,61,32,18.34,BR,scattered clouds
673,Ambositra,-20.52,47.25,50.34,91,59,1.59,MG,broken clouds
674,Gander,48.97,-54.59,69.8,46,75,6.93,CA,broken clouds
675,Anta,25.15,76.3,77.86,91,37,9.71,IN,light rain
676,Zyryanka,65.75,150.85,37.78,85,99,9.13,RU,overcast clouds
677,Peniche,39.36,-9.38,71.01,86,0,7.0,PT,clear sky
678,Inhambane,-23.86,35.38,66.2,77,0,4.7,MZ,clear sky
679,Batsfjord,70.63,29.72,59.0,87,100,6.93,NO,overcast clouds
680,Mersing,2.43,103.84,73.4,100,79,1.81,MY,broken clouds
681,Mehran,33.12,46.16,69.8,37,0,4.7,IR,clear sky
682,Forest,37.36,-79.29,88.0,55,75,10.29,US,broken clouds
683,Adwa,14.16,38.9,62.78,90,100,2.28,ET,light rain
684,Novichikha,52.2,81.39,56.3,62,65,5.59,RU,broken clouds
685,Guarne,6.28,-75.44,80.6,100,40,6.93,CO,light intensity drizzle
686,Loralai,30.37,68.6,81.55,49,0,8.77,PK,clear sky
687,Selikhino,50.37,137.5,58.33,93,100,4.88,RU,overcast clouds
688,Bucyrus,40.81,-82.98,84.0,58,90,8.05,US,overcast clouds
