City_ID,City,Lat,Lng,Max Temp,Humidity,Cloudiness,Wind Speed,Country,Date
0,Kloulklubed,7.04,134.26,78.8,88,75,2.24,PW,2020-08-22 22:37:17
1,Poronaysk,49.22,143.12,64.62,74,100,6.31,RU,2020-08-22 22:37:17
2,Atuona,-9.8,-139.03,78.26,79,43,18.23,PF,2020-08-22 22:37:17
3,Kodiak,57.79,-152.41,62.87,68,23,2.86,US,2020-08-22 22:36:18
4,Puerto Ayora,-0.74,-90.35,73.4,64,82,18.34,EC,2020-08-22 22:37:17
5,Deputatskiy,69.3,139.9,34.47,88,97,0.56,RU,2020-08-22 22:37:17
6,Souillac,-20.52,57.52,69.8,77,40,8.05,MU,2020-08-22 22:37:17
7,Severo-Kurilsk,50.68,156.12,53.33,77,33,12.8,RU,2020-08-22 22:37:17
8,Ambanja,-13.68,48.45,69.87,84,83,1.81,MG,2020-08-22 22:37:17
9,Zhigansk,66.77,123.37,42.46,74,64,17.69,RU,2020-08-22 22:37:17
10,Port Elizabeth,-33.92,25.57,57.2,93,40,4.7,ZA,2020-08-22 22:37:17
11,Hobart,-42.88,147.33,48.0,81,75,9.17,AU,2020-08-22 22:35:25
12,Nouadhibou,20.93,-17.03,73.4,83,0,13.87,MR,2020-08-22 22:33:37
13,La Ronge,55.1,-105.28,59.0,87,90,19.46,CA,2020-08-22 22:37:18
14,Channel-Port Aux Basques,47.57,-59.14,60.24,76,0,11.74,CA,2020-08-22 22:37:18
15,Leeton,-34.57,146.4,43.0,87,75,12.75,AU,2020-08-22 22:37:18
16,Caravelas,-17.71,-39.25,70.83,81,100,11.41,BR,2020-08-22 22:37:18
17,Geraldton,-28.77,114.6,59.0,93,90,4.7,AU,2020-08-22 22:37:18
18,Ketchikan,55.34,-131.65,57.2,93,90,9.17,US,2020-08-22 22:37:18
19,Ocampo,21.65,-101.5,72.12,42,73,8.68,MX,2020-08-22 22:37:18
20,Clarence Town,-32.58,151.78,54.0,57,35,25.28,AU,2020-08-22 22:36:39
21,Cidreira,-30.18,-50.21,53.56,73,0,6.13,BR,2020-08-22 22:37:18
22,Batsfjord,70.63,29.72,58.35,84,69,15.48,NO,2020-08-22 22:37:18
23,Ulaanbaatar,47.91,106.88,42.8,87,0,0.49,MN,2020-08-22 22:37:18
24,Bluff,-46.6,168.33,46.0,98,100,4.0,NZ,2020-08-22 22:37:18
25,Cayenne,4.93,-52.33,82.4,74,3,3.36,GF,2020-08-22 22:37:19
26,La Paz,-16.5,-68.15,57.2,16,0,10.29,BO,2020-08-22 22:37:19
27,New Norfolk,-42.78,147.06,48.0,86,90,1.99,AU,2020-08-22 22:37:19
28,Tuktoyaktuk,69.45,-133.04,55.4,82,20,11.41,CA,2020-08-22 22:37:19
29,Port Alfred,-33.59,26.89,59.29,71,0,11.5,ZA,2020-08-22 22:37:19
30,Ostrovnoy,68.05,39.51,58.12,76,0,16.49,RU,2020-08-22 22:37:19
31,Kavaratti,10.57,72.64,82.44,76,50,11.45,IN,2020-08-22 22:37:19
32,Port Hardy,50.7,-127.42,55.4,93,90,3.36,CA,2020-08-22 22:37:19
33,Nikolskoye,59.7,30.79,64.4,68,40,6.71,RU,2020-08-22 22:37:19
34,Santa Rosalia,27.32,-112.28,88.41,46,31,2.46,MX,2020-08-22 22:37:19
35,Pokhara,28.23,83.98,70.86,82,63,1.57,NP,2020-08-22 22:37:19
36,Hasaki,35.73,140.83,79.0,94,75,5.82,JP,2020-08-22 22:37:19
37,Riverton,40.52,-111.94,95.0,20,1,12.46,US,2020-08-22 22:35:10
38,Fallon,39.47,-118.78,96.8,7,75,5.82,US,2020-08-22 22:37:20
39,Ocos,14.51,-92.19,75.2,100,90,8.05,GT,2020-08-22 22:37:20
40,Vaini,-21.2,-175.2,78.8,88,75,9.17,TO,2020-08-22 22:37:20
41,Saint George,37.1,-113.58,102.99,22,1,13.87,US,2020-08-22 22:37:20
42,Busselton,-33.65,115.33,48.99,86,39,9.28,AU,2020-08-22 22:34:40
43,Katsuura,35.13,140.3,80.01,83,100,1.01,JP,2020-08-22 22:37:20
44,Nushki,29.55,66.02,83.19,45,49,4.72,PK,2020-08-22 22:36:39
45,Congonhas,-20.5,-43.86,53.91,91,100,7.56,BR,2020-08-22 22:37:20
46,Norman Wells,65.28,-126.83,68.0,52,40,13.87,CA,2020-08-22 22:37:20
47,Hatta,24.12,79.6,75.13,89,100,11.92,IN,2020-08-22 22:37:20
48,Danville,36.59,-79.39,82.0,74,1,5.39,US,2020-08-22 22:37:20
49,Mercedes,-34.65,-59.43,54.0,42,0,1.99,AR,2020-08-22 22:37:20
50,Trincomalee,8.57,81.23,79.7,78,72,14.7,LK,2020-08-22 22:37:21
51,Mareeba,-17.0,145.43,68.0,72,31,2.46,AU,2020-08-22 22:34:29
52,Lorengau,-2.02,147.27,83.57,72,58,0.98,PG,2020-08-22 22:37:21
53,Bethel,41.37,-73.41,86.0,48,1,8.05,US,2020-08-22 22:37:21
54,Ribeira Grande,38.52,-28.7,72.97,80,40,9.55,PT,2020-08-22 22:37:21
55,Xining,36.62,101.77,56.64,83,100,2.04,CN,2020-08-22 22:35:00
56,Jamestown,42.1,-79.24,80.6,47,1,6.93,US,2020-08-22 22:37:21
57,Hilo,19.73,-155.09,86.0,66,1,10.29,US,2020-08-22 22:37:21
58,Popova,42.96,131.72,59.0,100,75,4.47,RU,2020-08-22 22:37:21
59,Barrow,71.29,-156.79,42.8,87,90,21.92,US,2020-08-22 22:37:21
60,Tiksi,71.69,128.87,40.73,90,100,3.6,RU,2020-08-22 22:37:21
61,Narsaq,60.92,-46.05,51.8,66,20,5.82,GL,2020-08-22 22:37:21
62,Mataura,-46.19,168.86,46.0,98,98,4.0,NZ,2020-08-22 22:37:21
63,Canalete,8.68,-76.2,78.46,89,98,7.05,CO,2020-08-22 22:37:22
64,Yellowknife,62.46,-114.35,59.0,62,75,12.75,CA,2020-08-22 22:35:01
65,Russell,32.35,-85.2,89.6,52,1,8.05,US,2020-08-22 22:37:22
66,Ushuaia,-54.8,-68.3,44.6,78,75,19.46,AR,2020-08-22 22:35:47
67,Yar-Sale,66.83,70.83,48.4,92,4,9.51,RU,2020-08-22 22:37:22
68,Bonthe,7.53,-12.51,76.14,92,100,8.43,SL,2020-08-22 22:37:22
69,Chuy,-33.7,-53.46,46.53,70,0,6.26,UY,2020-08-22 22:37:22
70,Khandagayty,50.73,92.05,48.72,69,32,1.7,RU,2020-08-22 22:37:22
71,Henties Bay,-22.12,14.28,65.07,32,0,7.67,NA,2020-08-22 22:37:22
72,Airai,-8.93,125.41,63.37,41,70,4.41,TL,2020-08-22 22:37:22
73,Altamira,-3.2,-52.21,75.2,88,40,6.93,BR,2020-08-22 22:37:22
74,Harnoli,32.28,71.55,91.76,50,1,5.84,PK,2020-08-22 22:37:22
75,Rikitea,-23.12,-134.97,67.01,73,87,18.52,PF,2020-08-22 22:37:22
76,Albany,42.6,-73.97,84.0,48,0,6.49,US,2020-08-22 22:36:00
77,Sibu,2.3,111.82,73.4,100,40,1.12,MY,2020-08-22 22:37:24
78,Mahebourg,-20.41,57.7,69.8,77,40,8.05,MU,2020-08-22 22:37:24
79,Saldanha,-33.01,17.94,50.0,87,0,4.7,ZA,2020-08-22 22:37:24
80,Chokurdakh,70.63,147.92,35.67,93,99,6.13,RU,2020-08-22 22:37:24
81,Kutum,14.2,24.67,73.22,72,73,8.37,SD,2020-08-22 22:37:24
82,Abilene,32.45,-99.73,96.01,34,1,4.7,US,2020-08-22 22:35:10
83,Salalah,17.02,54.09,77.0,100,90,6.93,OM,2020-08-22 22:37:24
84,Lakes Entrance,-37.88,147.98,51.01,76,80,1.99,AU,2020-08-22 22:37:24
85,Sitka,57.05,-135.33,62.6,77,75,4.7,US,2020-08-22 22:37:24
86,Mar Del Plata,-38.0,-57.56,55.99,65,0,6.93,AR,2020-08-22 22:37:24
87,Timra,62.49,17.33,64.99,77,29,5.82,SE,2020-08-22 22:37:24
88,Morondava,-20.28,44.28,70.47,51,0,10.2,MG,2020-08-22 22:37:24
89,Carnarvon,-24.87,113.63,64.4,77,92,9.17,AU,2020-08-22 22:37:25
90,Missao Velha,-7.25,-39.14,89.6,27,86,6.93,BR,2020-08-22 22:37:25
91,Khatanga,71.97,102.5,51.91,68,1,6.73,RU,2020-08-22 22:37:25
92,Pangai,-19.8,-174.35,78.8,88,20,13.87,TO,2020-08-22 22:37:25
93,Chulym,55.1,80.96,51.71,91,98,6.46,RU,2020-08-22 22:37:25
94,Da Nang,16.07,108.22,78.8,88,40,3.36,VN,2020-08-22 22:37:25
95,Muisne,0.6,-80.03,82.4,74,75,6.93,EC,2020-08-22 22:37:25
96,Alekseyevskaya,50.29,42.18,53.01,83,0,1.01,RU,2020-08-22 22:37:25
97,Kruisfontein,-34.0,24.73,51.12,91,0,5.93,ZA,2020-08-22 22:37:25
98,Padang,-0.95,100.35,77.7,78,100,3.06,ID,2020-08-22 22:37:25
99,Portales,34.19,-103.33,99.0,20,20,4.7,US,2020-08-22 22:37:25
100,Faanui,-16.48,-151.75,76.95,78,11,21.61,PF,2020-08-22 22:34:20
101,Rio Gallegos,-51.62,-69.22,42.8,60,75,18.34,AR,2020-08-22 22:36:35
102,Pafos,34.77,32.42,78.8,50,0,6.93,CY,2020-08-22 22:37:25
103,Cascais,38.7,-9.42,68.0,85,0,23.0,PT,2020-08-22 22:34:56
104,East London,-33.02,27.91,64.81,48,0,12.75,ZA,2020-08-22 22:37:26
105,Pacific Grove,36.62,-121.92,71.6,56,40,8.05,US,2020-08-22 22:33:53
106,Lubaczow,50.16,23.12,70.0,89,0,1.01,PL,2020-08-22 22:37:26
107,Clyde River,70.47,-68.59,49.82,71,95,6.58,CA,2020-08-22 22:37:26
108,Torbay,47.67,-52.73,64.0,72,4,12.75,CA,2020-08-22 22:35:14
109,Pervoavgustovskiy,52.23,35.06,55.6,82,0,3.09,RU,2020-08-22 22:37:26
110,Walvis Bay,-22.96,14.51,64.8,25,0,1.81,NA,2020-08-22 22:37:26
111,Taoudenni,22.68,-3.98,103.57,8,50,9.64,ML,2020-08-22 22:37:26
112,Bredasdorp,-34.53,20.04,51.8,87,8,4.7,ZA,2020-08-22 22:37:26
113,Arraial Do Cabo,-22.97,-42.03,68.0,49,75,8.05,BR,2020-08-22 22:37:26
114,Avera,33.19,-82.53,80.6,88,40,5.82,US,2020-08-22 22:37:26
115,Dalbandin,28.89,64.41,87.75,48,81,9.53,PK,2020-08-22 22:37:26
116,Warner Robins,32.62,-83.6,84.2,70,40,13.87,US,2020-08-22 22:35:46
117,Zharkent,44.16,80.0,64.87,32,46,1.41,KZ,2020-08-22 22:37:27
118,Cap Malheureux,-19.98,57.61,69.01,76,17,5.99,MU,2020-08-22 22:37:27
119,Chimoio,-19.12,33.48,55.4,100,20,2.04,MZ,2020-08-22 22:35:27
120,Georgetown,5.41,100.34,80.6,94,20,3.36,MY,2020-08-22 22:37:27
121,Barreirinhas,-2.75,-42.83,76.3,91,1,6.29,BR,2020-08-22 22:35:50
122,Sampit,-2.53,112.95,74.93,95,54,1.39,ID,2020-08-22 22:37:27
123,Moron,-34.65,-58.62,59.0,34,0,1.01,AR,2020-08-22 22:37:27
124,Kontagora,10.4,5.47,72.32,93,20,2.21,NG,2020-08-22 22:37:27
125,Yulara,-25.24,130.99,48.2,49,0,8.05,AU,2020-08-22 22:37:27
126,Panzhihua,26.59,101.71,68.29,82,1,0.47,CN,2020-08-22 22:37:27
127,Tuatapere,-46.13,167.68,46.0,98,100,4.0,NZ,2020-08-22 22:37:28
128,Caxito,-8.58,13.66,71.6,88,75,3.36,AO,2020-08-22 22:37:28
129,Kristinehamn,59.31,14.11,61.0,87,71,13.87,SE,2020-08-22 22:37:28
130,Anadyr,64.75,177.48,53.6,87,75,11.18,RU,2020-08-22 22:37:28
131,Praya,14.92,-23.51,80.6,78,20,8.05,CV,2020-08-22 22:36:22
132,Bengkulu,-3.8,102.27,75.07,87,65,3.49,ID,2020-08-22 22:37:28
133,Oga,46.46,10.35,57.99,100,45,2.24,IT,2020-08-22 22:37:28
134,Tsabong,-26.02,22.4,54.0,45,0,11.77,BW,2020-08-22 22:37:28
135,Punta Arenas,-53.15,-70.92,37.4,74,20,20.8,CL,2020-08-22 22:37:28
136,Antofagasta,-23.65,-70.4,57.2,71,90,11.41,CL,2020-08-22 22:36:32
137,Atambua,-9.11,124.89,73.35,49,23,3.62,ID,2020-08-22 22:34:08
138,Pulivendla,14.42,78.23,79.48,71,81,12.68,IN,2020-08-22 22:37:28
139,Cape Town,-33.93,18.42,50.0,93,2,1.12,ZA,2020-08-22 22:35:20
140,Castro,-24.79,-50.01,44.37,93,12,8.01,BR,2020-08-22 22:37:28
141,Hithadhoo,-0.6,73.08,83.12,79,7,14.83,MV,2020-08-22 22:37:28
142,Fortuna,40.6,-124.16,66.99,77,20,13.87,US,2020-08-22 22:37:29
143,Pisco,-13.7,-76.22,64.4,72,40,12.75,PE,2020-08-22 22:37:18
144,Scarborough,54.28,-0.4,57.0,91,96,3.0,GB,2020-08-22 22:36:52
145,Hanzhong,33.07,107.03,70.5,89,80,1.01,CN,2020-08-22 22:37:29
146,Sandviken,60.62,16.77,62.01,78,22,5.99,SE,2020-08-22 22:37:29
147,Kapaa,22.08,-159.32,87.01,62,20,12.75,US,2020-08-22 22:35:13
148,Qaanaaq,77.48,-69.36,37.94,85,100,2.04,GL,2020-08-22 22:37:29
149,Dikson,73.51,80.55,47.98,75,96,7.45,RU,2020-08-22 22:37:29
150,Longyearbyen,78.22,15.64,39.2,80,40,9.17,SJ,2020-08-22 22:37:29
151,Lowestoft,52.48,1.75,64.0,70,10,3.0,GB,2020-08-22 22:32:59
152,San Patricio,19.22,-104.7,86.0,74,75,11.41,MX,2020-08-22 22:37:29
153,Vershino-Darasunskiy,52.35,115.52,55.98,99,100,3.31,RU,2020-08-22 22:37:29
154,Kungurtug,50.6,97.52,43.65,86,18,1.39,RU,2020-08-22 22:37:29
155,Westport,41.14,-73.36,84.99,62,1,11.41,US,2020-08-22 22:37:29
156,Kobryn,52.21,24.36,65.89,87,31,6.53,BY,2020-08-22 22:37:30
157,Srednekolymsk,67.45,153.68,36.28,94,100,11.27,RU,2020-08-22 22:37:30
158,Ayan,56.45,138.17,59.92,57,31,7.87,RU,2020-08-22 22:37:30
159,Ispas,48.3,25.27,64.0,80,0,3.44,UA,2020-08-22 22:37:30
160,Ponta Do Sol,32.67,-17.1,73.4,73,20,14.99,PT,2020-08-22 22:37:30
161,Sola,-13.88,167.55,81.18,82,100,19.13,VU,2020-08-22 22:37:30
162,Haines Junction,60.75,-137.51,65.35,66,100,2.46,CA,2020-08-22 22:37:30
163,Ust-Nera,64.57,143.2,42.93,61,100,4.88,RU,2020-08-22 22:37:30
164,Kudahuvadhoo,2.67,72.89,83.77,69,41,7.2,MV,2020-08-22 22:37:30
165,Upernavik,72.79,-56.15,44.24,70,86,9.42,GL,2020-08-22 22:37:30
166,Amapa,1.0,-52.0,71.83,93,45,1.36,BR,2020-08-22 22:37:30
167,Biak,-0.91,122.88,76.33,76,50,6.87,ID,2020-08-22 22:37:30
168,Pringsewu,-5.36,104.97,72.43,85,39,0.38,ID,2020-08-22 22:37:30
169,Klaksvik,62.23,-6.59,46.4,75,100,14.99,FO,2020-08-22 22:37:30
170,Atbasar,51.8,68.33,51.82,93,6,7.02,KZ,2020-08-22 22:37:31
171,Masvingo,-20.06,30.83,50.7,80,49,4.03,ZW,2020-08-22 22:37:31
172,Adrar,20.5,-10.07,100.27,9,31,5.37,MR,2020-08-22 22:37:31
173,Tasiilaq,65.61,-37.64,46.4,52,58,9.17,GL,2020-08-22 22:37:31
174,Zheleznodorozhnyy,55.75,38.0,61.0,100,92,2.53,RU,2020-08-22 22:37:31
175,Kortkeros,61.81,51.58,51.8,93,90,2.1,RU,2020-08-22 22:37:31
176,Cherskiy,68.75,161.3,36.28,94,100,23.26,RU,2020-08-22 22:37:31
177,Emirdag,39.02,31.15,62.73,57,2,3.36,TR,2020-08-22 22:37:31
178,Nadym,65.53,72.52,53.64,90,99,13.82,RU,2020-08-22 22:37:31
179,Atar,20.52,-13.05,99.75,20,73,3.13,MR,2020-08-22 22:37:31
180,Port Augusta,-32.5,137.77,43.0,93,75,6.93,AU,2020-08-22 22:37:31
181,Hamilton,39.18,-84.53,79.0,73,1,4.7,US,2020-08-22 22:37:31
182,College,64.86,-147.8,73.0,46,40,5.82,US,2020-08-22 22:37:31
183,Namatanai,-3.67,152.43,82.4,73,64,2.68,PG,2020-08-22 22:34:34
184,Portland,45.52,-122.68,80.01,47,20,11.41,US,2020-08-22 22:33:54
185,Lavrentiya,65.58,-171.0,47.08,94,100,6.55,RU,2020-08-22 22:37:31
186,Ca Mau,9.18,105.15,78.13,88,100,2.8,VN,2020-08-22 22:37:32
187,Wrzesnia,52.33,17.57,64.99,94,80,4.0,PL,2020-08-22 22:37:32
188,Aquiraz,-3.9,-38.39,78.8,78,10,10.29,BR,2020-08-22 22:37:32
189,Krasnoselkup,65.7,82.47,52.2,70,90,6.87,RU,2020-08-22 22:37:32
190,Murakami,38.23,139.48,77.0,94,75,2.24,JP,2020-08-22 22:37:32
191,Pangnirtung,66.15,-65.71,52.65,60,0,3.69,CA,2020-08-22 22:37:32
192,Komsomolskoye,55.26,47.55,51.13,88,0,5.66,RU,2020-08-22 22:37:32
193,Victoria,22.29,114.16,82.0,78,8,3.0,HK,2020-08-22 22:36:28
194,Cabo San Lucas,22.89,-109.91,89.6,52,5,9.17,MX,2020-08-22 22:36:23
195,Puerto Escondido,15.85,-97.07,84.2,62,75,3.44,MX,2020-08-22 22:37:32
196,Avarua,-21.21,-159.78,77.0,73,10,14.99,CK,2020-08-22 22:37:32
197,Riyadh,24.69,46.72,95.0,15,48,5.82,SA,2020-08-22 22:34:03
198,Simoes,-7.6,-40.82,78.96,32,8,8.03,BR,2020-08-22 22:37:32
199,Utete,-7.99,38.76,69.66,88,28,2.82,TZ,2020-08-22 22:37:32
200,San Juan,-31.54,-68.54,55.63,32,0,3.83,AR,2020-08-22 22:37:33
201,Fano,43.82,13.01,82.0,72,0,6.93,IT,2020-08-22 22:37:33
202,Lasa,46.62,10.7,57.99,100,5,2.24,IT,2020-08-22 22:37:33
203,Thompson,55.74,-97.86,53.6,66,75,10.29,CA,2020-08-22 22:37:33
204,Leningradskiy,69.38,178.42,49.93,74,6,5.66,RU,2020-08-22 22:37:33
205,Umm Lajj,25.02,37.27,81.93,71,0,4.23,SA,2020-08-22 22:37:33
206,Roma,43.21,-75.46,82.4,51,20,12.75,US,2020-08-22 22:34:32
207,San Cristobal,7.77,-72.22,89.6,40,40,17.22,VE,2020-08-22 22:33:17
208,Buala,-8.14,159.59,83.43,76,100,10.67,SB,2020-08-22 22:37:33
209,Sarkand,45.41,79.92,67.98,26,96,4.85,KZ,2020-08-22 22:37:33
210,Hermanus,-34.42,19.23,57.0,86,14,1.99,ZA,2020-08-22 22:37:33
211,Komsomolskiy,40.43,71.72,71.6,46,0,6.93,UZ,2020-08-22 22:37:33
212,Thunder Bay,48.4,-89.32,68.0,100,90,5.82,CA,2020-08-22 22:35:05
213,Margate,51.38,1.39,64.99,78,23,4.0,GB,2020-08-22 22:37:34
214,Itarema,-2.92,-39.92,77.59,78,0,12.62,BR,2020-08-22 22:37:34
215,Bundaberg,-24.85,152.35,62.01,35,0,10.29,AU,2020-08-22 22:37:34
216,Vashkivtsi,48.38,25.51,66.0,10,0,4.94,UA,2020-08-22 22:37:34
217,Houma,29.6,-90.72,91.99,55,40,11.41,US,2020-08-22 22:35:20
218,Filingue,14.35,3.32,86.54,53,74,11.32,NE,2020-08-22 22:37:34
219,Zarand,30.81,56.56,76.69,35,1,8.12,IR,2020-08-22 22:37:34
220,Salekhard,66.53,66.6,51.35,87,90,7.67,RU,2020-08-22 22:37:34
221,Saint-Francois,46.42,3.91,66.2,68,84,3.36,FR,2020-08-22 22:37:34
222,Saint-Philippe,-21.36,55.77,64.4,63,35,3.36,RE,2020-08-22 22:37:34
223,Sao Francisco De Paula,-29.45,-50.58,46.0,80,0,3.0,BR,2020-08-22 22:37:34
224,Yaan,7.38,8.57,73.08,96,99,6.17,NG,2020-08-22 22:37:34
225,Alta Floresta,-9.88,-56.09,78.51,33,2,2.53,BR,2020-08-22 22:37:34
226,Pedernales,18.04,-71.74,84.2,83,40,18.34,DO,2020-08-22 22:37:35
227,La Union,-5.4,-80.75,71.29,55,33,16.2,PE,2020-08-22 22:37:35
228,Yarada,17.65,83.27,78.8,94,75,5.82,IN,2020-08-22 22:37:35
229,Rocha,-34.48,-54.33,45.27,73,0,5.06,UY,2020-08-22 22:37:35
230,Kavieng,-2.57,150.8,82.89,71,9,2.89,PG,2020-08-22 22:37:35
231,Vidim,56.41,103.11,59.14,67,95,1.3,RU,2020-08-22 22:37:35
232,Novopokrovka,49.84,36.55,59.0,67,0,4.47,UA,2020-08-22 22:37:35
233,Constitucion,-35.33,-72.42,53.64,91,13,14.09,CL,2020-08-22 22:37:35
234,Ilulissat,69.22,-51.1,44.6,70,0,3.36,GL,2020-08-22 22:37:35
235,Neiafu,-18.65,-173.98,80.6,83,40,13.87,TO,2020-08-22 22:37:35
236,Faya,18.39,42.45,71.6,68,4,3.44,SA,2020-08-22 22:37:36
237,Bathsheba,13.22,-59.52,84.2,74,20,9.17,BB,2020-08-22 22:37:36
238,Esperance,-33.87,121.9,50.0,87,75,8.05,AU,2020-08-22 22:37:36
239,Sayat,38.78,63.88,75.2,36,0,4.7,TM,2020-08-22 22:37:36
240,Chishtian Mandi,29.8,72.87,88.65,57,1,7.76,PK,2020-08-22 22:37:36
241,Luanda,-8.84,13.23,71.6,88,75,3.36,AO,2020-08-22 22:37:36
242,Axim,4.87,-2.24,74.73,92,10,6.35,GH,2020-08-22 22:37:36
243,Hofn,64.25,-15.21,49.59,76,39,1.45,IS,2020-08-22 22:37:36
244,Onega,63.91,38.14,57.13,84,95,6.49,RU,2020-08-22 22:37:36
245,Alghero,40.56,8.32,75.2,88,0,3.36,IT,2020-08-22 22:37:36
246,Mount Gambier,-37.83,140.77,44.6,87,40,8.05,AU,2020-08-22 22:37:36
247,Mogocha,53.73,119.77,55.8,78,97,4.79,RU,2020-08-22 22:37:36
248,Grindavik,63.84,-22.43,48.2,93,0,1.12,IS,2020-08-22 22:37:36
249,Kaitangata,-46.28,169.85,51.01,83,56,17.0,NZ,2020-08-22 22:37:36
250,Gravelbourg,49.88,-106.55,87.28,23,50,23.76,CA,2020-08-22 22:37:37
251,Butaritari,3.07,172.79,83.16,63,100,7.07,KI,2020-08-22 22:37:37
252,Valparaiso,-33.04,-71.63,52.0,100,90,16.11,CL,2020-08-22 22:33:19
253,Beyneu,45.32,55.2,69.49,44,100,14.92,KZ,2020-08-22 22:37:37
254,Santa Maria,-29.68,-53.81,59.0,54,0,10.29,BR,2020-08-22 22:37:37
255,Verkhnevilyuysk,63.45,120.32,47.66,61,0,2.68,RU,2020-08-22 22:37:37
256,Sredneuralsk,56.99,60.47,51.8,93,20,8.95,RU,2020-08-22 22:37:37
257,Gladstone,-23.85,151.25,60.8,29,1,10.29,AU,2020-08-22 22:37:37
258,Magan,39.97,-3.93,80.01,20,0,5.61,ES,2020-08-22 22:37:37
259,Buin,-33.73,-70.75,62.01,55,0,4.7,CL,2020-08-22 22:37:37
260,Porto Novo,6.5,2.6,75.2,94,20,5.82,BJ,2020-08-22 22:36:23
261,Goderich,43.75,-81.72,81.0,58,7,1.01,CA,2020-08-22 22:33:01
262,Omboue,-1.57,9.26,73.87,82,97,8.5,GA,2020-08-22 22:37:38
263,Puerto Del Rosario,28.5,-13.86,78.8,69,0,12.75,ES,2020-08-22 22:37:38
264,Labuhan,-6.88,112.21,75.74,87,6,7.56,ID,2020-08-22 22:37:38
265,Comodoro Rivadavia,-45.87,-67.5,62.6,42,20,10.29,AR,2020-08-22 22:33:19
266,Khash,28.22,61.22,73.65,69,61,6.8,IR,2020-08-22 22:37:38
267,Alice Springs,-23.7,133.88,44.6,48,0,6.58,AU,2020-08-22 22:37:38
268,Healesville,-37.65,145.52,46.0,94,99,5.08,AU,2020-08-22 22:37:38
269,Orlik,52.52,99.83,50.14,78,100,2.1,RU,2020-08-22 22:37:38
270,Merauke,-8.47,140.33,77.34,76,15,12.53,ID,2020-08-22 22:37:38
271,Lebu,-37.62,-73.65,47.71,88,0,7.23,CL,2020-08-22 22:37:38
272,Kismayo,-0.36,42.55,76.35,82,62,17.45,SO,2020-08-22 22:37:38
273,Soligalich,59.08,42.29,54.77,86,14,3.8,RU,2020-08-22 22:37:38
274,Laguna,38.42,-121.42,95.0,34,75,6.98,US,2020-08-22 22:37:38
275,Trairi,-3.28,-39.27,77.38,79,1,11.21,BR,2020-08-22 22:37:38
276,Buraydah,26.33,43.98,91.4,22,37,8.05,SA,2020-08-22 22:37:38
277,Saint-Augustin,51.23,-58.65,58.75,79,95,4.68,CA,2020-08-22 22:37:39
278,Weinan,34.5,109.51,72.0,100,36,6.71,CN,2020-08-22 22:37:39
279,Nagua,19.38,-69.85,82.4,94,75,6.93,DO,2020-08-22 22:37:39
280,Chapais,49.78,-74.85,66.2,52,20,8.05,CA,2020-08-22 22:37:39
281,Kemijarvi,66.71,27.43,61.11,91,95,9.8,FI,2020-08-22 22:37:39
282,Jumla,29.27,82.18,57.76,69,28,2.04,NP,2020-08-22 22:37:39
283,Ayorou,14.73,0.92,85.69,51,24,13.31,NE,2020-08-22 22:37:39
284,General Pico,-35.66,-63.76,54.41,39,0,14.88,AR,2020-08-22 22:35:37
285,Pevek,69.7,170.31,38.17,98,100,4.81,RU,2020-08-22 22:37:39
286,Touros,-5.2,-35.46,75.2,88,40,8.05,BR,2020-08-22 22:37:39
287,Los Llanos De Aridane,28.66,-17.92,75.2,83,8,16.11,ES,2020-08-22 22:37:39
288,Road Town,18.42,-64.62,77.0,94,100,30.0,VG,2020-08-22 22:37:40
289,Provideniya,64.38,-173.3,51.58,82,100,6.15,RU,2020-08-22 22:37:40
290,Aksha,50.28,113.29,59.04,85,86,1.77,RU,2020-08-22 22:35:06
291,Barcelos,41.54,-8.62,64.99,88,1,8.05,PT,2020-08-22 22:33:40
292,Almeirim,-1.52,-52.58,84.09,53,7,3.56,BR,2020-08-22 22:32:48
293,Sechura,-5.56,-80.82,68.43,63,22,16.15,PE,2020-08-22 22:37:40
294,Praia Da Vitoria,38.73,-27.07,73.4,78,20,3.8,PT,2020-08-22 22:37:40
295,Ibirapitanga,-14.16,-39.37,68.86,96,52,2.24,BR,2020-08-22 22:37:40
296,Ballina,-28.87,153.57,57.2,43,0,12.75,AU,2020-08-22 22:37:40
297,Vila Franca Do Campo,37.72,-25.43,71.6,88,20,5.82,PT,2020-08-22 22:37:40
298,Majagual,8.54,-74.62,79.86,89,74,2.64,CO,2020-08-22 22:37:40
299,Santa Vitoria,-18.84,-50.12,69.37,50,79,4.9,BR,2020-08-22 22:37:40
300,Radom,51.4,21.15,68.0,99,100,5.37,PL,2020-08-22 22:37:40
301,Aljezur,37.32,-8.8,63.0,87,0,13.56,PT,2020-08-22 22:37:40
302,Bonavista,48.65,-53.11,61.0,83,49,4.9,CA,2020-08-22 22:32:57
303,Dorado,18.46,-66.27,78.01,88,90,14.99,PR,2020-08-22 22:34:56
304,Quelimane,-17.88,36.89,71.01,77,49,2.24,MZ,2020-08-22 22:37:41
305,Susanville,40.42,-120.65,91.4,8,1,10.29,US,2020-08-22 22:37:41
306,Manicore,-5.81,-61.3,79.81,43,0,0.94,BR,2020-08-22 22:37:41
307,Aksehir,38.36,31.42,62.11,61,2,4.94,TR,2020-08-22 22:37:41
308,Saint-Paul,-21.01,55.27,69.8,64,4,14.99,RE,2020-08-22 22:37:41
309,Katherine,-14.47,132.27,64.4,45,0,5.82,AU,2020-08-22 22:35:06
310,Balikpapan,-1.27,116.83,78.8,100,40,73.6,ID,2020-08-22 22:37:41
311,Ambulu,-8.35,113.61,72.61,89,9,3.83,ID,2020-08-22 22:37:41
312,Novyy Karachay,43.82,41.9,51.12,76,87,4.41,RU,2020-08-22 22:37:41
313,Mweka,-4.85,21.57,71.38,88,100,2.57,CD,2020-08-22 22:37:41
314,Monroe,43.15,-77.68,86.0,51,20,4.7,US,2020-08-22 22:37:41
315,Bubaque,11.28,-15.83,80.53,83,74,9.89,GW,2020-08-22 22:37:41
316,Princeton,25.54,-80.41,89.6,74,90,5.82,US,2020-08-22 22:37:41
317,Machico,32.7,-16.77,73.4,73,20,14.99,PT,2020-08-22 22:37:42
318,Harper,4.38,-7.72,75.92,87,61,11.32,LR,2020-08-22 22:37:42
319,Olafsvik,64.89,-23.71,50.41,65,24,6.04,IS,2020-08-22 22:37:42
320,Uddevalla,58.35,11.94,60.01,87,67,8.05,SE,2020-08-22 22:37:42
321,Hanna,51.63,-111.9,71.01,38,0,5.99,CA,2020-08-22 22:37:42
322,Vardo,70.37,31.11,57.49,86,64,20.85,NO,2020-08-22 22:37:42
323,Salta,-24.79,-65.41,57.2,28,25,8.05,AR,2020-08-22 22:37:42
324,Bay Roberts,47.6,-53.26,64.0,71,0,4.0,CA,2020-08-22 22:37:42
325,Monte Patria,-30.69,-70.95,58.98,57,0,3.85,CL,2020-08-22 22:37:42
326,Brindisi,40.58,17.67,82.0,78,0,1.12,IT,2020-08-22 22:37:42
327,Sagbayan,9.91,124.09,80.6,83,75,1.12,PH,2020-08-22 22:37:42
328,Catuday,16.29,119.81,80.73,81,77,9.37,PH,2020-08-22 22:37:42
329,Cumana,10.46,-64.18,95.0,53,67,16.11,VE,2020-08-22 22:37:27
330,Songjianghe,42.19,127.48,66.45,83,99,3.33,CN,2020-08-22 22:37:42
331,High Rock,26.62,-78.28,87.8,74,40,11.41,BS,2020-08-22 22:37:42
332,Kothi,24.75,80.78,76.08,86,49,8.21,IN,2020-08-22 22:37:42
333,Tera,14.01,0.75,82.2,61,27,14.85,NE,2020-08-22 22:37:43
334,San Quintin,30.48,-115.95,78.62,67,1,8.66,MX,2020-08-22 22:37:43
335,Taltal,-25.4,-70.48,52.25,79,32,1.61,CL,2020-08-22 22:37:43
336,Kysyl-Syr,63.9,122.76,46.26,60,0,6.51,RU,2020-08-22 22:37:43
337,Yumen,40.28,97.2,64.11,42,12,11.92,CN,2020-08-22 22:37:43
338,Iqaluit,63.75,-68.51,44.6,87,20,8.05,CA,2020-08-22 22:37:43
339,Itupiranga,-5.13,-49.33,78.8,100,75,2.98,BR,2020-08-22 22:37:43
340,Ponta Delgada,37.73,-25.67,71.6,88,20,5.82,PT,2020-08-22 22:35:17
341,Karlshamn,56.17,14.86,64.4,77,1,4.7,SE,2020-08-22 22:37:43
342,Conceicao Da Barra,-18.59,-39.73,70.12,81,90,13.87,BR,2020-08-22 22:33:35
343,Burnie,-41.07,145.92,51.01,64,32,17.0,AU,2020-08-22 22:37:43
344,Lodja,-3.48,23.43,71.82,92,99,5.17,CD,2020-08-22 22:37:43
345,Cochrane,51.18,-114.47,75.99,23,1,14.99,CA,2020-08-22 22:37:43
346,Rangpur,25.75,89.25,76.6,92,83,7.14,BD,2020-08-22 22:37:43
347,Davydivka,48.12,25.56,66.0,10,0,3.89,UA,2020-08-22 22:37:44
348,Mpulungu,-8.76,31.11,71.06,52,67,14.25,ZM,2020-08-22 22:37:44
349,Nuuk,64.18,-51.72,42.8,93,90,5.82,GL,2020-08-22 22:37:44
350,Borba,-4.39,-59.59,81.86,38,0,1.34,BR,2020-08-22 22:37:44
351,Marsa Matruh,31.35,27.25,78.8,78,40,9.17,EG,2020-08-22 22:37:44
352,Luderitz,-26.65,15.16,64.33,28,0,7.63,NA,2020-08-22 22:37:44
353,Lompoc,34.64,-120.46,80.01,68,1,13.87,US,2020-08-22 22:37:28
354,Talnakh,69.49,88.4,57.2,62,56,13.42,RU,2020-08-22 22:37:44
355,Sao Filipe,14.9,-24.5,79.16,79,39,4.94,CV,2020-08-22 22:37:44
356,Pitimbu,-7.47,-34.81,75.2,88,20,4.7,BR,2020-08-22 22:37:44
357,Yerbogachen,61.28,108.01,50.97,64,22,7.14,RU,2020-08-22 22:37:44
358,Krasnogvardeyskiy,57.38,62.32,50.76,97,95,5.08,RU,2020-08-22 22:37:44
359,Pangoa,-12.12,-73.0,62.13,81,48,0.94,PE,2020-08-22 22:37:44
360,Rock Sound,24.9,-76.2,84.0,77,9,18.95,BS,2020-08-22 22:37:45
361,Kerema,-7.96,145.78,78.33,83,76,7.05,PG,2020-08-22 22:37:46
362,Malpe,13.35,74.72,77.0,88,90,3.36,IN,2020-08-22 22:37:46
363,Cururupu,-1.83,-44.87,75.29,91,18,3.44,BR,2020-08-22 22:37:46
364,Winnemucca,40.97,-117.74,96.8,6,1,11.41,US,2020-08-22 22:37:46
365,Ereymentau,51.62,73.1,51.21,76,4,9.53,KZ,2020-08-22 22:37:46
366,Umm Kaddadah,13.6,26.69,82.89,59,13,16.26,SD,2020-08-22 22:37:46
367,Mehamn,71.04,27.85,59.11,79,40,15.46,NO,2020-08-22 22:37:46
368,Coquimbo,-29.95,-71.34,50.0,93,90,4.7,CL,2020-08-22 22:37:46
369,Cajabamba,-7.62,-78.05,65.01,49,45,4.36,PE,2020-08-22 22:37:46
370,Saskylakh,71.92,114.08,43.18,64,5,4.9,RU,2020-08-22 22:37:46
371,Ilesha,7.14,5.26,69.87,99,91,3.56,NG,2020-08-22 22:37:46
372,Oranjemund,-28.55,16.43,58.48,54,0,4.74,NA,2020-08-22 22:37:46
373,Urucara,-2.54,-57.76,82.8,41,10,1.63,BR,2020-08-22 22:37:46
374,Japura,-0.32,102.35,73.85,96,100,2.26,ID,2020-08-22 22:37:46
375,Sao Jose Da Coroa Grande,-8.9,-35.15,74.34,84,30,9.1,BR,2020-08-22 22:37:47
376,Iskateley,67.68,53.15,49.03,86,60,3.0,RU,2020-08-22 22:37:47
377,Caibarien,22.52,-79.47,89.6,66,75,17.22,CU,2020-08-22 22:37:47
378,Champasak,14.75,106.0,72.21,98,90,2.82,LA,2020-08-22 22:37:47
379,Morro Bay,35.37,-120.85,87.01,71,89,1.99,US,2020-08-22 22:32:55
380,Gisors,49.28,1.78,66.2,68,75,13.87,FR,2020-08-22 22:37:47
381,Gannan,47.91,123.5,62.89,66,100,7.14,CN,2020-08-22 22:37:47
382,Kapit,2.02,112.93,74.43,94,100,0.56,MY,2020-08-22 22:37:47
383,Nakama,33.82,130.7,82.4,78,75,3.36,JP,2020-08-22 22:37:47
384,Marechal Deodoro,-9.71,-35.9,71.6,88,20,3.36,BR,2020-08-22 22:37:47
385,Nehe,48.48,124.83,62.87,72,99,8.01,CN,2020-08-22 22:37:47
386,Leshukonskoye,64.9,45.76,55.0,93,11,2.91,RU,2020-08-22 22:37:47
387,Sterling,39.01,-77.43,81.0,78,75,4.18,US,2020-08-22 22:37:21
388,Hobyo,5.35,48.53,75.72,81,94,21.3,SO,2020-08-22 22:37:48
389,Marzuq,14.4,46.47,82.0,50,63,8.43,YE,2020-08-22 22:37:48
390,Tomatlan,19.93,-105.25,85.26,78,63,7.65,MX,2020-08-22 22:37:48
391,Lagoa,39.05,-27.98,72.48,83,57,10.13,PT,2020-08-22 22:37:48
392,Banda Aceh,5.56,95.32,78.3,78,93,6.06,ID,2020-08-22 22:37:48
393,Penzance,50.12,-5.54,60.8,82,5,17.22,GB,2020-08-22 22:37:48
394,Noyabrsk,63.2,75.45,47.59,93,61,6.49,RU,2020-08-22 22:37:48
395,Natal,-5.79,-35.21,77.0,78,75,12.75,BR,2020-08-22 22:36:39
396,Aksu,41.12,80.26,71.78,42,1,2.77,CN,2020-08-22 22:37:48
397,Jiayuguan,39.82,98.3,64.26,45,75,4.99,CN,2020-08-22 22:37:48
398,Nome,64.5,-165.41,55.4,87,90,13.87,US,2020-08-22 22:37:48
399,Rawson,-43.3,-65.1,57.49,37,0,2.82,AR,2020-08-22 22:37:48
400,Lufilufi,-13.87,-171.6,89.6,62,75,12.75,WS,2020-08-22 22:34:03
401,Malindi,-3.22,40.12,76.05,78,43,15.28,KE,2020-08-22 22:33:07
402,Catio,11.28,-15.25,77.72,89,88,4.5,GW,2020-08-22 22:37:49
403,Sharya,58.37,45.51,53.1,90,0,3.58,RU,2020-08-22 22:37:49
404,Leninsk,48.71,45.2,59.0,58,8,8.95,RU,2020-08-22 22:37:49
405,Halifax,44.65,-63.57,73.99,55,23,4.25,CA,2020-08-22 22:33:07
406,Poya,-21.35,165.15,74.84,70,44,5.28,NC,2020-08-22 22:37:49
407,Kununurra,-15.77,128.73,66.2,20,15,3.36,AU,2020-08-22 22:32:59
408,Port Macquarie,-31.43,152.92,57.0,43,0,7.0,AU,2020-08-22 22:37:49
409,Pandan,14.05,124.17,82.42,77,100,4.54,PH,2020-08-22 22:37:49
410,Camacha,33.08,-16.33,73.4,73,20,12.75,PT,2020-08-22 22:37:49
411,Knysna,-34.04,23.05,53.6,100,1,4.7,ZA,2020-08-22 22:37:49
412,Gornyy,55.12,83.91,51.12,90,96,6.44,RU,2020-08-22 22:37:49
413,Abha,18.22,42.51,71.6,68,5,2.95,SA,2020-08-22 22:37:49
414,Bambous Virieux,-20.34,57.76,69.8,77,40,8.05,MU,2020-08-22 22:37:49
415,Katwijk,52.19,4.42,64.99,78,42,7.0,NL,2020-08-22 22:34:24
416,Seoul,37.57,126.98,73.4,100,90,1.99,KR,2020-08-22 22:36:41
417,Monticello,45.31,-93.79,88.0,54,0,5.3,US,2020-08-22 22:37:49
418,Mnogovershinnyy,53.94,139.92,58.06,63,47,1.59,RU,2020-08-22 22:37:50
419,Trapani,37.83,12.67,80.6,88,40,8.05,IT,2020-08-22 22:37:50
420,Teguise,29.06,-13.56,75.2,83,20,25.28,ES,2020-08-22 22:34:41
421,Huarmey,-10.07,-78.15,63.59,76,45,9.35,PE,2020-08-22 22:37:50
422,El Alto,-4.27,-81.21,62.69,82,71,15.3,PE,2020-08-22 22:37:50
423,Danjiangkou,32.54,111.51,72.41,93,99,0.98,CN,2020-08-22 22:37:50
424,Dir,35.21,71.88,66.09,71,0,1.05,PK,2020-08-22 22:37:50
425,Vestmanna,62.16,-7.17,46.4,75,92,14.99,FO,2020-08-22 22:37:50
426,Cockburn Town,21.46,-71.14,84.11,79,79,26.31,TC,2020-08-22 22:37:50
427,Ibaiti,-23.85,-50.19,51.01,99,24,5.99,BR,2020-08-22 22:37:50
428,Muroto,33.28,134.15,77.0,88,75,8.05,JP,2020-08-22 22:37:50
429,Ratnagiri,16.98,73.3,79.61,86,100,12.03,IN,2020-08-22 22:37:50
430,Luangwa,-15.62,30.42,65.46,63,0,8.3,ZM,2020-08-22 22:37:50
431,Paamiut,61.99,-49.67,43.77,92,39,9.15,GL,2020-08-22 22:37:51
432,Dinard,48.63,-2.06,59.0,87,33,8.05,FR,2020-08-22 22:37:51
433,Havre-Saint-Pierre,50.23,-63.6,57.2,76,1,16.11,CA,2020-08-22 22:37:51
434,Maniitsoq,65.42,-52.9,48.4,82,35,8.97,GL,2020-08-22 22:37:51
435,Methoni,36.82,21.7,82.0,60,0,7.18,GR,2020-08-22 22:37:51
436,Newport,51.59,-3.0,62.01,95,80,1.99,GB,2020-08-22 22:37:51
437,Lonavale,18.75,73.42,80.6,94,75,9.17,IN,2020-08-22 22:37:51
438,Mandalgovi,45.76,106.27,60.37,49,99,5.53,MN,2020-08-22 22:37:51
439,Sandomierz,50.68,21.75,71.01,86,49,3.0,PL,2020-08-22 22:37:51
440,Hovd,48.01,91.64,55.58,57,60,1.7,MN,2020-08-22 22:37:51
441,Behat,30.17,77.62,76.93,87,8,3.83,IN,2020-08-22 22:37:51
442,Ola,59.58,151.28,50.68,50,100,14.5,RU,2020-08-22 22:33:04
443,Mecca,21.43,39.83,89.74,28,9,2.37,SA,2020-08-22 22:37:51
444,Aklavik,68.22,-135.01,55.4,82,40,2.24,CA,2020-08-22 22:37:51
445,Takoradi,4.88,-1.76,74.62,91,8,6.53,GH,2020-08-22 22:33:06
446,Laurel,39.1,-76.85,82.4,69,1,3.36,US,2020-08-22 22:35:49
447,Hobbs,32.7,-103.14,98.6,16,5,4.7,US,2020-08-22 22:37:52
448,Muros,42.78,-9.06,63.0,84,2,1.01,ES,2020-08-22 22:37:52
449,Mount Pleasant,32.79,-79.86,82.99,83,40,1.39,US,2020-08-22 22:33:46
450,Arequipa,-16.4,-71.53,64.4,25,0,9.17,PE,2020-08-22 22:33:09
451,Amudat,1.95,34.95,69.6,72,98,2.28,UG,2020-08-22 22:37:52
452,Qasigiannguit,68.82,-51.19,44.6,70,0,3.36,GL,2020-08-22 22:37:52
453,Zhangye,38.93,100.45,62.2,68,99,5.77,CN,2020-08-22 22:37:52
454,Progreso,21.28,-89.67,89.01,66,75,6.93,MX,2020-08-22 22:35:04
455,Nabire,-3.37,135.48,76.1,86,67,3.58,ID,2020-08-22 22:37:52
456,Itoman,26.12,127.67,80.6,88,75,6.93,JP,2020-08-22 22:37:52
457,Manaure,11.78,-72.44,83.41,78,60,11.1,CO,2020-08-22 22:37:52
458,Tautira,-17.73,-149.15,82.4,65,40,8.05,PF,2020-08-22 22:37:52
459,Cukai,4.25,103.42,77.0,94,90,2.24,MY,2020-08-22 22:37:52
460,Lagos,6.58,3.75,77.0,88,20,8.05,NG,2020-08-22 22:37:53
461,Bandarbeyla,9.49,50.81,76.57,72,73,30.33,SO,2020-08-22 22:37:53
462,Dunedin,-45.87,170.5,48.99,92,71,4.0,NZ,2020-08-22 22:37:53
463,Port Hedland,-20.32,118.57,62.6,36,0,8.05,AU,2020-08-22 22:37:53
464,Richha,28.7,79.52,77.18,90,7,11.36,IN,2020-08-22 22:37:53
465,Auki,-8.77,160.7,84.09,71,100,6.02,SB,2020-08-22 22:37:53
466,Tura,25.52,90.22,72.64,97,62,3.98,IN,2020-08-22 22:37:53
467,Soe,-9.86,124.28,68.25,55,0,4.63,ID,2020-08-22 22:37:53
468,Jizan,17.33,42.67,87.8,70,40,4.7,SA,2020-08-22 22:37:53
469,Obidos,-1.92,-55.52,86.43,40,38,3.74,BR,2020-08-22 22:37:53
470,Yashkino,55.87,85.43,51.8,100,31,6.71,RU,2020-08-22 22:37:53
471,Siniscola,40.57,9.69,82.4,58,0,9.17,IT,2020-08-22 22:37:53
472,Egra,50.08,12.37,60.01,98,4,4.36,CZ,2020-08-22 22:37:53
473,Andros Town,24.7,-77.77,89.6,59,40,12.75,BS,2020-08-22 22:35:09
474,Berlevag,70.86,29.09,58.53,82,52,18.9,NO,2020-08-22 22:37:54
475,Fairbanks,64.84,-147.72,73.0,46,90,6.93,US,2020-08-22 22:37:54
476,Llanes,43.42,-4.75,64.0,98,41,1.01,ES,2020-08-22 22:37:54
477,Ormara,25.21,64.64,83.35,84,100,12.33,PK,2020-08-22 22:37:54
478,Porec,45.23,13.59,75.0,88,0,6.93,HR,2020-08-22 22:37:54
479,Ambilobe,-13.2,49.05,66.36,66,76,5.91,MG,2020-08-22 22:37:54
480,Tres Arroyos,-38.37,-60.28,50.2,49,0,14.2,AR,2020-08-22 22:37:54
481,Porbandar,21.64,69.61,81.88,86,100,20.6,IN,2020-08-22 22:37:54
482,Ust-Tsilma,65.44,52.15,51.82,89,68,0.27,RU,2020-08-22 22:37:54
483,Ngunguru,-35.62,174.5,60.01,3,27,1.01,NZ,2020-08-22 22:37:54
484,Imamoglu,37.27,35.66,84.2,28,0,14.99,TR,2020-08-22 22:37:54
485,Keningau,5.34,116.16,75.2,94,20,4.7,MY,2020-08-22 22:37:54
486,Novikovo,51.15,37.89,57.85,68,0,2.95,RU,2020-08-22 22:37:54
487,Lyuban,52.8,28.0,59.47,88,6,7.81,BY,2020-08-22 22:37:54
488,Frogner,60.02,11.1,57.99,93,40,8.05,NO,2020-08-22 22:37:55
489,Beaupre,47.04,-70.9,75.99,55,38,6.98,CA,2020-08-22 22:37:55
490,Saint-Joseph,-21.37,55.62,64.4,63,16,3.36,RE,2020-08-22 22:37:55
491,Viedma,-40.81,-63.0,60.01,32,0,5.01,AR,2020-08-22 22:36:22
492,Rioblanco,3.53,-75.68,65.89,75,79,0.25,CO,2020-08-22 22:37:55
493,Odweyne,9.41,45.06,73.8,52,97,17.6,SO,2020-08-22 22:37:55
494,Along,28.17,94.77,71.67,89,66,1.59,IN,2020-08-22 22:37:55
495,Nhamunda,-2.19,-56.71,83.05,38,10,1.36,BR,2020-08-22 22:37:55
496,Mount Isa,-20.73,139.5,55.4,36,4,9.17,AU,2020-08-22 22:37:55
497,Flinders,-34.58,150.86,53.01,52,2,13.0,AU,2020-08-22 22:37:55
498,Gorom-Gorom,14.44,-0.24,82.26,61,44,12.95,BF,2020-08-22 22:37:55
499,Warrington,53.39,-2.58,60.8,87,75,13.87,GB,2020-08-22 22:35:12
500,Port Hawkesbury,45.62,-61.35,68.0,59,1,3.36,CA,2020-08-22 22:37:55
501,Mayo,38.89,-76.51,81.0,78,1,9.17,US,2020-08-22 22:37:55
502,Ariquemes,-9.91,-63.04,74.93,39,0,5.57,BR,2020-08-22 22:37:56
503,Yen Bai,21.7,104.87,77.43,90,88,0.43,VN,2020-08-22 22:37:56
504,Solnechnyy,50.72,136.63,64.27,85,100,3.42,RU,2020-08-22 22:37:56
505,Jinchang,38.5,102.17,60.76,76,100,7.61,CN,2020-08-22 22:37:56
506,Dalianwan,39.03,121.69,66.2,82,0,2.24,CN,2020-08-22 22:37:56
507,Te Anau,-45.42,167.72,45.86,79,100,0.22,NZ,2020-08-22 22:37:56
508,Mongomo,1.63,11.31,68.74,97,99,3.13,GQ,2020-08-22 22:37:56
509,Angoche,-16.23,39.91,71.78,75,69,15.21,MZ,2020-08-22 22:37:56
510,Coronado,32.69,-117.18,89.01,74,40,10.29,US,2020-08-22 22:37:56
511,Romny,50.75,33.47,56.28,71,0,4.9,UA,2020-08-22 22:37:56
512,Olenegorsk,68.15,33.3,58.24,85,58,11.54,RU,2020-08-22 22:37:56
513,Ipil,7.75,122.52,78.48,83,81,1.05,PH,2020-08-22 22:37:56
514,Bontang,0.13,117.5,77.76,89,77,5.35,ID,2020-08-22 22:37:56
515,Ornskoldsvik,63.29,18.72,59.0,87,30,4.7,SE,2020-08-22 22:37:56
516,Puerto Baquerizo Moreno,-0.9,-89.6,69.8,83,75,11.41,EC,2020-08-22 22:37:57
517,Kermanshah,34.31,47.06,68.0,19,0,2.08,IR,2020-08-22 22:37:57
518,Carutapera,-1.2,-46.02,77.97,84,1,6.85,BR,2020-08-22 22:37:57
519,Kahama,-3.83,32.6,71.73,41,96,9.37,TZ,2020-08-22 22:37:57
520,Doha,25.29,51.53,90.0,79,87,4.7,QA,2020-08-22 22:37:57
521,Maraa,-1.83,-65.37,76.3,67,0,1.43,BR,2020-08-22 22:37:57
522,Anaconda,46.13,-112.94,82.4,24,1,4.7,US,2020-08-22 22:37:57
523,Chase,50.82,-119.69,78.8,26,40,5.82,CA,2020-08-22 22:37:57
524,Monrovia,6.3,-10.8,77.0,94,75,10.13,LR,2020-08-22 22:37:57
525,Kushmurun,52.45,64.63,53.13,88,0,6.02,KZ,2020-08-22 22:37:57
526,Half Moon Bay,37.46,-122.43,90.0,50,75,20.8,US,2020-08-22 22:37:57
527,Nanortalik,60.14,-45.24,45.93,77,5,1.66,GL,2020-08-22 22:37:57
528,Praia,14.92,-23.51,80.6,78,20,8.05,CV,2020-08-22 22:37:57
529,Shatsk,54.03,41.71,53.22,80,0,1.63,RU,2020-08-22 22:37:58
530,Iquitos,-3.75,-73.25,66.2,82,90,5.82,PE,2020-08-22 22:37:58
531,Tuensang,26.28,94.83,69.3,84,95,0.87,IN,2020-08-22 22:37:58
532,Dourbali,11.81,15.86,75.16,87,100,4.56,TD,2020-08-22 22:37:58
533,Sorland,67.67,12.69,56.48,92,99,19.44,NO,2020-08-22 22:37:58
534,Roanoke Rapids,36.46,-77.65,82.4,100,1,5.75,US,2020-08-22 22:37:58
535,Asosa,10.07,34.53,62.65,98,97,1.05,ET,2020-08-22 22:37:58
536,Broome,42.25,-75.83,82.0,51,75,3.36,US,2020-08-22 22:37:58
537,Viradouro,-20.87,-48.3,64.4,63,20,5.82,BR,2020-08-22 22:35:48
538,Calamar,10.25,-74.91,84.2,79,75,4.7,CO,2020-08-22 22:37:58
539,Gambela,8.25,34.58,71.74,92,100,3.94,ET,2020-08-22 22:37:58
540,Windhoek,-22.56,17.08,59.0,18,0,5.82,NA,2020-08-22 22:34:30
541,Vila Velha,-20.33,-40.29,64.4,93,90,11.41,BR,2020-08-22 22:37:58
542,Santa Rosa,14.31,121.11,80.6,88,100,4.76,PH,2020-08-22 22:34:12
543,Gazalkent,41.56,69.77,71.6,33,0,9.17,UZ,2020-08-22 22:37:58
544,Kirkenaer,60.46,12.06,62.6,93,40,8.05,NO,2020-08-22 22:37:59
545,Belyy Yar,53.6,91.39,48.2,100,0,4.47,RU,2020-08-22 22:37:59
546,Codrington,-38.27,141.97,48.38,81,58,16.82,AU,2020-08-22 22:37:59
547,Eureka,40.8,-124.16,73.99,38,3,3.0,US,2020-08-22 22:37:28
548,Nivala,63.92,24.97,61.0,94,100,4.0,FI,2020-08-22 22:37:59
549,Berdigestyakh,62.1,126.7,47.39,58,0,3.83,RU,2020-08-22 22:37:59
550,Contamana,-7.33,-75.02,73.36,64,9,2.71,PE,2020-08-22 22:37:59
551,Yiyang,28.59,112.33,77.09,92,67,0.58,CN,2020-08-22 22:37:59
552,Coihueco,-36.62,-71.83,66.2,48,0,2.24,CL,2020-08-22 22:37:59
553,Tarusa,54.72,37.18,51.8,100,94,2.62,RU,2020-08-22 22:37:59
554,Hambantota,6.12,81.12,78.8,100,40,4.7,LK,2020-08-22 22:37:59
555,Mokhsogollokh,61.47,128.92,47.32,58,0,5.01,RU,2020-08-22 22:38:00
556,Mananjary,-21.22,48.33,62.46,87,0,5.46,MG,2020-08-22 22:38:00
557,Poum,-20.23,164.02,72.37,75,29,10.58,NC,2020-08-22 22:38:00
558,Guerrero Negro,27.98,-114.06,85.42,51,0,18.88,MX,2020-08-22 22:38:00
